name,address,latitude,longitude,rating,borough
Vintage80scasuals,"Unit 63, 105 Culvert Rd, London",51.47090439999999,-0.1566805,0.0,London
Accessories of Old,"Next to Safestore, Arch 10 Munster Rd, London",51.4725788,-0.2038588,0.0,London
Eclectica (Clapham),"803 Wandsworth Rd, London",51.4665809,-0.1484604,4.9,London
BajaboutiqueGB,"37 Elbe St, London",51.4728777,-0.1850758,0.0,London
INSIGHT Fulham Dress Agency,"201 Munster Rd, London",51.4794466,-0.2118834,5.0,London
NewVintage.co.uk,"256 Battersea Park Rd, London",51.4720756,-0.1661966,4.1,London
Rewind Vintage Affairs,London,51.47750680000001,-0.1831423,5.0,London
R13fitness,"Flat 74, Barton House, Wandsworth Bridge Rd., London",51.4682394,-0.1898545,0.0,London
Deuxieme,"299 New Kings Rd, London",51.4721182,-0.203096,3.8,London
Northcote Road Antiques Market,"155a Northcote Rd, London",51.455341,-0.1645277,4.4,London
43 Decorative Antiques,"43 Replingham Rd, London",51.44506939999999,-0.2043641,4.5,London
Guinevere Antiques Ltd,"574-580, King's Rd, London",51.47900199999999,-0.188218,4.8,London
Eccles Road Antiques,"60 Eccles Rd, London",51.46180829999999,-0.1634526,4.9,London
Ebury Trading,"Lavender Hill, London",51.4651588,-0.1550034,5.0,London
Antique Modern Mix,"unit 121, Design Centre South Dome, London",51.4760284,-0.1829163,5.0,London
Black Tie White Noise,"62 Fulham High St, London",51.4703604,-0.2107931,0.0,London
HOWE Warehouse,"Unit 15B, Bldg B Parkfield Industrial Estate, Culvert Pl, London",51.4711469,-0.1544732,0.0,London
The Shop,"645-649 Garratt Lane, London",51.4366231,-0.1865754,3.3,London
New Kings Road Vintage Guitar Emporium,"65A New Kings Rd, London",51.475823,-0.1933474,4.6,London
ShonaMac.com,"8 Bellevue Rd, London",51.44577210000001,-0.1658887,4.5,London
Artiquea Gallery,"82 Wandsworth Bridge Rd., London",51.4738719,-0.1922307,5.0,London
331,"331 Garratt Lane, London",51.44639429999999,-0.189165,4.4,London
Retro Furniture & Services,"338 Balham High Rd, London",51.4358639,-0.1596233,5.0,London
Saluto London,"Battersea Business Centre, London",51.4650292,-0.1549833,5.0,London
Gutlin Clocks & Antiques,"606 King's Rd, London",51.4784546,-0.1891004,5.0,London
Vittorio Ragone Design,"533 King's Rd, London",51.4802725,-0.1854478,5.0,London
Silk & Sawdust,"2 Michael Rd, London",51.47718039999999,-0.1865522,5.0,London
Traid,"28 St John's Rd, London",51.4629956,-0.1679301,4.1,London
Boutique by Shelter,"49 Northcote Rd, London",51.4594101,-0.1662286,4.8,London
Chelsea Vintage Couture,"Office - Showroom, BY APPOINTMENT ONLY, Sloane Ave, London",51.4924574,-0.1659658,4.7,London
Vintage80scasuals,"Unit 63, 105 Culvert Rd, London",51.47090439999999,-0.1566805,0.0,London
Hornets,"2 & 4 Kensington Church Walk, London",51.50253259999999,-0.1928196,4.9,London
Accessories of Old,"Next to Safestore, Arch 10 Munster Rd, London",51.4725788,-0.2038588,0.0,London
Eclectica (Clapham),"803 Wandsworth Rd, London",51.4665809,-0.1484604,4.9,London
De L'Époque,"8 Cheval Pl, London",51.49900359999999,-0.1667621,5.0,London
BajaboutiqueGB,"37 Elbe St, London",51.4728777,-0.1850758,0.0,London
INSIGHT Fulham Dress Agency,"201 Munster Rd, London",51.4794466,-0.2118834,5.0,London
NewVintage.co.uk,"256 Battersea Park Rd, London",51.4720756,-0.1661966,4.1,London
Rewind Vintage Affairs,London,51.47750680000001,-0.1831423,5.0,London
All Loved Up Boutique,"All Loved Up Boutique, 91 Charlwood St, London",51.4880187,-0.1412302,5.0,London
R13fitness,"Flat 74, Barton House, Wandsworth Bridge Rd., London",51.4682394,-0.1898545,0.0,London
Retromania Fara London,"6 Upper Tachbrook St, London",51.4933772,-0.1399568,4.3,London
Deuxieme,"299 New Kings Rd, London",51.4721182,-0.203096,3.8,London
Sign of the Times,"5 Elystan St, London",51.490966,-0.1667517,4.3,London
Field Antiques,"275 Lillie Rd, London",51.4829184,-0.2116797,0.0,London
Good,"31 Kensington Church St, London",51.5035908,-0.1920055,4.9,London
Sheila Cook Textiles,"26 Addison Pl, London",51.5065669,-0.2134664,0.0,London
James McWhirter Antiques Ltd,"11 Langton St, London",51.4823176,-0.1807697,4.8,London
Guinevere Antiques Ltd,"574-580, King's Rd, London",51.47900199999999,-0.188218,4.8,London
Eccles Road Antiques,"60 Eccles Rd, London",51.46180829999999,-0.1634526,4.9,London
Butterworth Christopher,"71 Pimlico Rd, London",51.490362,-0.1535057,3.7,London
Antique Modern Mix,"unit 121, Design Centre South Dome, London",51.4760284,-0.1829163,5.0,London
New Kings Road Vintage Guitar Emporium,"65A New Kings Rd, London",51.475823,-0.1933474,4.6,London
AntikBar - Original Vintage Posters,"404 King's Rd, London",51.4836155,-0.1771506,4.9,London
Found And Vision,"318 Portobello Rd, London",51.5213081,-0.2099342,4.5,London
Beyond Retro Soho,"19-21 Argyll St, London",51.5150107,-0.1411872,4.3,London
Karen Vintage Boutique @293,"293 Portobello Rd, London",51.5191106,-0.2075888,4.7,London
282 Portobello,"282 Portobello Rd, London",51.5192983,-0.2074127,4.3,London
Last Place on Earth (uk),"82 Golborne Rd, London",51.5218537,-0.2087682,4.7,London
Rellik,"8 Golborne Rd, London",51.52414779999999,-0.2059257,4.3,London
Lovers Lane London,"77 Portobello Rd, London",51.51266390000001,-0.2021452,4.1,London
Dream Retro,"2nd Floor, Alfies Antiques Market, 13- 25 Church St, London",51.5241887,-0.1688101,0.0,London
Vintage Modes,"Alfies Antique Market, Church St, London",51.5241887,-0.1688101,0.0,London
Chelsea Vintage Couture,"Office - Showroom, BY APPOINTMENT ONLY, Sloane Ave, London",51.4924574,-0.1659658,4.7,London
Lime Green Bow VINTAGE,"5, 18 All Saints Rd, London",51.5180802,-0.2036464,4.0,London
Hornets,"2 & 4 Kensington Church Walk, London",51.50253259999999,-0.1928196,4.9,London
One Vintage,"Unit 10, Portobello Green, 281 Portobello Rd, London",51.5187839,-0.2072528,4.3,London
LanaTS Clothing,"55 Baker St, London",51.5187355,-0.1567089,0.0,London
Goldsmith Vintage,"176 Portobello Rd, London",51.5156751,-0.2046511,4.3,London
The House of Retro,"232 Portobello Rd, London",51.51735009999999,-0.20601,4.2,London
OOTO LONDON,"Claridge House, 32 Davies St, London",51.512012,-0.1477862,0.0,London
Retro Clothing Exchange,"28 Pembridge Rd, London",51.50983189999999,-0.1971427,2.9,London
Pepper Tree London,"Unit1, 253 Portobello Rd, London",51.517531,-0.2065744,4.1,London
Eddie Wailes Studio,"13 - 25 Church St, London",51.52421589999999,-0.1688751,0.0,London
Antique Clothing Shop,"282 Portobello Rd, London",51.5192918,-0.2074124,5.0,London
Generation Vintage LDN,"242 Portobello Rd, London",51.517774,-0.2062906,3.0,London
Oliver Vintage,"Unit 7, Portobello Green Arcade, 281 Portobello Rd, London",51.5185621,-0.2073518,5.0,London
Pepper Tree London Notting Hill,"31 Pembridge Rd, Notting Hill Gate, London",51.5102901,-0.1974706,4.3,London
Nikita Sablier,"79 George St, London",51.5171123,-0.1568565,0.0,London
De L'Époque,"8 Cheval Pl, London",51.49900359999999,-0.1667621,5.0,London
Retro Man,"28 Pembridge Rd, London",51.5098437,-0.1971446,3.4,London
One Vintage,"200 Kensington Park Rd, London",51.5159972,-0.2059718,0.0,London
Portobello Vintage Market,"Greater, London",51.51872830000001,-0.2073275,4.0,London
Retro Woman,"20 Pembridge Rd, London",51.5096466,-0.1971298,2.7,London
American Vintage,"185 Westbourne Grove, London",51.5145847,-0.1981431,3.8,London
Open for Vintage,"7, 10 Cavendish Square, Chandos St, London",51.5169544,-0.1442532,5.0,London
vintage clothing,London,51.52362549999999,-0.2067168,5.0,London
Vintage Stockroom,"13 - 25 Church St, London",51.524127,-0.1688328,0.0,London
Sheila Cook Textiles,"26 Addison Pl, London",51.5065669,-0.2134664,0.0,London
V 4 Vintage,"13-25 Church St, London",51.5241887,-0.1688101,0.0,London
All Loved Up Boutique,"All Loved Up Boutique, 91 Charlwood St, London",51.4880187,-0.1412302,5.0,London
Good,"180 Queensway, London",51.51557,-0.1880176,5.0,London
Linda Bee,"Alfie’s Antique Market, 13 - 25 Church St, London",51.5241887,-0.1688101,3.7,London
Jane Bourvis,"6, 281 Portobello Grn, Portobello Rd, London",51.5185621,-0.2073518,4.4,London
Alice's,"86 Portobello Rd, London",51.51278,-0.2019071,4.5,London
Retromania Fara London,"6 Upper Tachbrook St, London",51.4933772,-0.1399568,4.3,London
Gillian Horsup,"Alfies Antiques, Alfies Antique Market, 13-25 Church St, London",51.5241887,-0.1688101,5.0,London
Vintage Fur Garden,"82 Portobello Rd, London",51.5126783,-0.2016607,5.0,London
Somebody & Sons Vintage Archive,"1A Beethoven St, London",51.530617,-0.2071881,0.0,London
This Old Thing London,"79 Portobello Rd, London",51.5127324,-0.2021264,5.0,London
American Vintage,"35 Marylebone High St, London",51.5205091,-0.151705,3.4,London
Grays Antique Market,"58 Davies St, London",51.5137017,-0.1486451,4.1,London
Sign of the Times,"5 Elystan St, London",51.490966,-0.1667517,4.3,London
Good,"31 Kensington Church St, London",51.5035908,-0.1920055,4.9,London
ANTIQUES,London,51.5122569,-0.1546661,4.8,London
Retro Living,"7A Church St, London",51.5244864,-0.1685567,5.0,London
Alfies Antique Market,"13 - 25 Church St, London",51.5241255,-0.1688334,4.3,London
SOMLO - London & OMEGA Vintage,"35-36 Burlington Arcade, London",51.509631,-0.14092,4.5,London
pillowHeat,"Vans Store, 47 Carnaby St, London",51.5128206,-0.1386783,4.9,London
Timewise Vintage Watches,"117 Portobello Rd, London",51.51381240000001,-0.2034662,0.0,London
The Vintage Showroom,"By Appointment) UNIT 20, Buspace Studios, Conlan St, London",51.525636,-0.210764,3.7,London
Pip Hackett Millinery,"65 Alfred Rd, London",51.5211277,-0.1962841,0.0,London
Found And Vision,"318 Portobello Rd, London",51.5213081,-0.2099342,4.5,London
Beyond Retro Soho,"19-21 Argyll St, London",51.5150107,-0.1411872,4.3,London
The Vintage Collection,"Arch 59, Camden Stables Market, London",51.5420455,-0.1469688,5.0,London
Rokit Camden,"225 Camden High St, London",51.5398923,-0.143589,4.1,London
Karen Vintage Boutique @293,"293 Portobello Rd, London",51.5191106,-0.2075888,4.7,London
282 Portobello,"282 Portobello Rd, London",51.5192983,-0.2074127,4.3,London
St Cyr Vintage,"56 Saddle Row Camden Market, London",51.5421391,-0.1483749,4.3,London
Berty and Gerty Vintage,"53 Camden Lock Pl, London",51.5413907,-0.1465884,0.0,London
Last Place on Earth (uk),"82 Golborne Rd, London",51.5218537,-0.2087682,4.7,London
What Goes Around Comes Around,"Unit 32, The Stables Market Chalk, Farm Road, London",51.5420969,-0.1466583,3.9,London
Rellik,"8 Golborne Rd, London",51.52414779999999,-0.2059257,4.3,London
Camden Threads - An online shop for the best independent brands and vintage boutiques,"44A Camden Lock Pl, London",51.5414567,-0.1463852,0.0,London
Lovers Lane London,"77 Portobello Rd, London",51.51266390000001,-0.2021452,4.1,London
Dream Retro,"2nd Floor, Alfies Antiques Market, 13- 25 Church St, London",51.5241887,-0.1688101,0.0,London
Vintage Modes,"Alfies Antique Market, Church St, London",51.5241887,-0.1688101,0.0,London
Funkytownshop,"Ground Floor, 232 Camden High St, London",51.5409704,-0.1443065,3.3,London
Lime Green Bow VINTAGE,"5, 18 All Saints Rd, London",51.5180802,-0.2036464,4.0,London
OuterLimitz Vintage,"12B, Camden Stables Market, Chalk Farm Rd, London",51.5420455,-0.1469688,0.0,London
Modern Age Vintage Clothing,"65 Chalk Farm Rd, London",51.5433049,-0.1503682,3.3,London
One Vintage,"Unit 10, Portobello Green, 281 Portobello Rd, London",51.5187839,-0.2072528,4.3,London
LanaTS Clothing,"55 Baker St, London",51.5187355,-0.1567089,0.0,London
Goldsmith Vintage,"176 Portobello Rd, London",51.5156751,-0.2046511,4.3,London
The House of Retro,"232 Portobello Rd, London",51.51735009999999,-0.20601,4.2,London
OOTO LONDON,"Claridge House, 32 Davies St, London",51.512012,-0.1477862,0.0,London
Pepper Tree London,"Unit1, 253 Portobello Rd, London",51.517531,-0.2065744,4.1,London
Eddie Wailes Studio,"13 - 25 Church St, London",51.52421589999999,-0.1688751,0.0,London
Antique Clothing Shop,"282 Portobello Rd, London",51.5192918,-0.2074124,5.0,London
Generation Vintage LDN,"242 Portobello Rd, London",51.517774,-0.2062906,3.0,London
Oliver Vintage,"Unit 7, Portobello Green Arcade, 281 Portobello Rd, London",51.5185621,-0.2073518,5.0,London
Retro Clothing Exchange,"28 Pembridge Rd, London",51.50983189999999,-0.1971427,2.9,London
A Dandy In Aspic,"Market, 748-749, North Yard Stables, Chalk Farm Rd, London",51.5425015,-0.1490213,3.4,London
Peekaboo Vintage Marketplace,"149a Abbey Rd, London",51.540942,-0.1910264,5.0,London
DreamingLion Vintage,"Unit D28, Horse Tunnel, The Stables Market, Chalk Farm Rd, London",51.5420455,-0.1469688,4.5,London
Pepper Tree London Notting Hill,"31 Pembridge Rd, Notting Hill Gate, London",51.5102901,-0.1974706,4.3,London
Somebody & Sons Vintage Archive,"1A Beethoven St, London",51.530617,-0.2071881,0.0,London
Nikita Sablier,"79 George St, London",51.5171123,-0.1568565,0.0,London
One Vintage,"200 Kensington Park Rd, London",51.5159972,-0.2059718,0.0,London
Portobello Vintage Market,"Greater, London",51.51872830000001,-0.2073275,4.0,London
Retro Man,"28 Pembridge Rd, London",51.5098437,-0.1971446,3.4,London
American Vintage,"185 Westbourne Grove, London",51.5145847,-0.1981431,3.8,London
VOUTIQUE LTD,"31 Claremont Rd, London",51.5332266,-0.2069859,0.0,London
Open for Vintage,"7, 10 Cavendish Square, Chandos St, London",51.5169544,-0.1442532,5.0,London
vintage clothing,London,51.52362549999999,-0.2067168,5.0,London
Vintage Stockroom,"13 - 25 Church St, London",51.524127,-0.1688328,0.0,London
Retro Woman,"20 Pembridge Rd, London",51.5096466,-0.1971298,2.7,London
V 4 Vintage,"13-25 Church St, London",51.5241887,-0.1688101,0.0,London
Good,"180 Queensway, London",51.51557,-0.1880176,5.0,London
Linda Bee,"Alfie’s Antique Market, 13 - 25 Church St, London",51.5241887,-0.1688101,3.7,London
Jane Bourvis,"6, 281 Portobello Grn, Portobello Rd, London",51.5185621,-0.2073518,4.4,London
Alice's,"86 Portobello Rd, London",51.51278,-0.2019071,4.5,London
Gillian Horsup,"Alfies Antiques, Alfies Antique Market, 13-25 Church St, London",51.5241887,-0.1688101,5.0,London
Vintage Fur Garden,"82 Portobello Rd, London",51.5126783,-0.2016607,5.0,London
SoSo Retro,"Unit 527, The Stables Market, Chalk Farm Rd, London",51.5420455,-0.1469688,5.0,London
SK.Vintage,"51 Fortess Rd, London",51.5539851,-0.1406663,4.5,London
This Old Thing London,"79 Portobello Rd, London",51.5127324,-0.2021264,5.0,London
American Vintage,"35 Marylebone High St, London",51.5205091,-0.151705,3.4,London
Grays Antique Market,"58 Davies St, London",51.5137017,-0.1486451,4.1,London
Collectif Camden Market,"36, Camden's Stables Market, Chalk Farm Rd, London",51.54222439999999,-0.1469208,4.7,London
Exclusive,"2 Flask Walk, London",51.55638070000001,-0.1776995,2.5,London
Vintage Clothing,"53 Chalk Farm Rd, London",51.5430371,-0.1501184,0.0,London
The Vintage Collection,"Arch 59, Camden Stables Market, London",51.5420455,-0.1469688,5.0,London
Rokit Camden,"225 Camden High St, London",51.5398923,-0.143589,4.1,London
St Cyr Vintage,"56 Saddle Row Camden Market, London",51.5421391,-0.1483749,4.3,London
Berty and Gerty Vintage,"53 Camden Lock Pl, London",51.5413907,-0.1465884,0.0,London
What Goes Around Comes Around,"Unit 32, The Stables Market Chalk, Farm Road, London",51.5420969,-0.1466583,3.9,London
Camden Threads - An online shop for the best independent brands and vintage boutiques,"44A Camden Lock Pl, London",51.5414567,-0.1463852,0.0,London
Funkytownshop,"Ground Floor, 232 Camden High St, London",51.5409704,-0.1443065,3.3,London
OuterLimitz Vintage,"12B, Camden Stables Market, Chalk Farm Rd, London",51.5420455,-0.1469688,0.0,London
Modern Age Vintage Clothing,"65 Chalk Farm Rd, London",51.5433049,-0.1503682,3.3,London
A Dandy In Aspic,"Market, 748-749, North Yard Stables, Chalk Farm Rd, London",51.5425015,-0.1490213,3.4,London
Exclusive,"2 Flask Walk, London",51.55638070000001,-0.1776995,2.5,London
Peekaboo Vintage Marketplace,"149a Abbey Rd, London",51.540942,-0.1910264,5.0,London
DreamingLion Vintage,"Unit D28, Horse Tunnel, The Stables Market, Chalk Farm Rd, London",51.5420455,-0.1469688,4.5,London
Arts And Vintage,"263 Archway Rd, London",51.5762988,-0.1442271,4.8,London
GROUND ONE SIX,"6 Malden Rd, London",51.5461817,-0.1506958,5.0,London
SoSo Retro,"Unit 527, The Stables Market, Chalk Farm Rd, London",51.5420455,-0.1469688,5.0,London
SK.Vintage,"51 Fortess Rd, London",51.5539851,-0.1406663,4.5,London
Collectif Camden Market,"36, Camden's Stables Market, Chalk Farm Rd, London",51.54222439999999,-0.1469208,4.7,London
Vintage Clothing,"53 Chalk Farm Rd, London",51.5430371,-0.1501184,0.0,London
20thc Quarters,"265 Archway Rd, London",51.5763249,-0.1442879,4.7,London
Vintage Qi - Eclectic Furniture & Home Décor,"5 Lonsdale Rd, London",51.5375636,-0.2024299,5.0,London
VOUTIQUE LTD,"31 Claremont Rd, London",51.5332266,-0.2069859,0.0,London
Camden Retro Signs,"8A, The Stables Market, PADDOCK LANE, Chalk Farm Rd, London",51.5420455,-0.1469688,5.0,London
rollos vintage furniture,"391 Archway Rd, London",51.5783701,-0.1490951,5.0,London
Roomscape,"In, Belmont St, London",51.54479000000001,-0.1512781,0.0,London
Camden Thrift Store,"51 Chalk Farm Rd, London",51.543116,-0.1494112,4.5,London
Gonnermann,"408-410 Archway Rd, London",51.5766188,-0.1441633,4.9,London
Vintage Luggage,"18 Delancey St, London",51.5368475,-0.1426188,4.2,London
Antique Kelims,"Highgate Rd, London",51.5529237,-0.1420899,0.0,London
Traid Camden,"154 Camden High St, London",51.5385937,-0.1421116,3.7,London
Episode,"26 Chalk Farm Rd, London",51.542509,-0.146978,0.0,London
Koo Style,"Unit 14/8, Camden Stables Market, Chalk Farm Rd, London",51.54197300000001,-0.1477216,4.2,London
CIRCA VINTAGE,"87a Lansdowne Way, London",51.4748348,-0.1286932,4.7,London
Vintage80scasuals,"Unit 63, 105 Culvert Rd, London",51.47090439999999,-0.1566805,0.0,London
Eclectica (Clapham),"803 Wandsworth Rd, London",51.4665809,-0.1484604,4.9,London
BajaboutiqueGB,"37 Elbe St, London",51.4728777,-0.1850758,0.0,London
NewVintage.co.uk,"256 Battersea Park Rd, London",51.4720756,-0.1661966,4.1,London
Rewind Vintage Affairs,London,51.47750680000001,-0.1831423,5.0,London
My Vintage J Box,"58 Streatham High Rd, London",51.4367663,-0.1280156,5.0,London
Northcote Road Antiques Market,"155a Northcote Rd, London",51.455341,-0.1645277,4.4,London
R13fitness,"Flat 74, Barton House, Wandsworth Bridge Rd., London",51.4682394,-0.1898545,0.0,London
Guinevere Antiques Ltd,"574-580, King's Rd, London",51.47900199999999,-0.188218,4.8,London
Eccles Road Antiques,"60 Eccles Rd, London",51.46180829999999,-0.1634526,4.9,London
Antique Modern Mix,"unit 121, Design Centre South Dome, London",51.4760284,-0.1829163,5.0,London
ShonaMac.com,"8 Bellevue Rd, London",51.44577210000001,-0.1658887,4.5,London
Loved again Ltd.,"140 Stockwell Rd, London",51.4673937,-0.1182007,5.0,London
Traid,"2 Acre Ln, London",51.4612282,-0.1162417,4.1,London
Retro Furniture & Services,"338 Balham High Rd, London",51.4358639,-0.1596233,5.0,London
331,"331 Garratt Lane, London",51.44639429999999,-0.189165,4.4,London
Saluto London,"Battersea Business Centre, London",51.4650292,-0.1549833,5.0,London
Gutlin Clocks & Antiques,"606 King's Rd, London",51.4784546,-0.1891004,5.0,London
CIRCA VINTAGE,"87a Lansdowne Way, London",51.4748348,-0.1286932,4.7,London
Retromania Fara London,"6 Upper Tachbrook St, London",51.4933772,-0.1399568,4.3,London
Chelsea Vintage Couture,"Office - Showroom, BY APPOINTMENT ONLY, Sloane Ave, London",51.4924574,-0.1659658,4.7,London
Vintage80scasuals,"Unit 63, 105 Culvert Rd, London",51.47090439999999,-0.1566805,0.0,London
Eclectica (Clapham),"803 Wandsworth Rd, London",51.4665809,-0.1484604,4.9,London
De L'Époque,"8 Cheval Pl, London",51.49900359999999,-0.1667621,5.0,London
All Loved Up Boutique,"All Loved Up Boutique, 91 Charlwood St, London",51.4880187,-0.1412302,5.0,London
BajaboutiqueGB,"37 Elbe St, London",51.4728777,-0.1850758,0.0,London
NewVintage.co.uk,"256 Battersea Park Rd, London",51.4720756,-0.1661966,4.1,London
Rewind Vintage Affairs,London,51.47750680000001,-0.1831423,5.0,London
Sign of the Times,"5 Elystan St, London",51.490966,-0.1667517,4.3,London
R13fitness,"Flat 74, Barton House, Wandsworth Bridge Rd., London",51.4682394,-0.1898545,0.0,London
James McWhirter Antiques Ltd,"11 Langton St, London",51.4823176,-0.1807697,4.8,London
Guinevere Antiques Ltd,"574-580, King's Rd, London",51.47900199999999,-0.188218,4.8,London
Butterworth Christopher,"71 Pimlico Rd, London",51.490362,-0.1535057,3.7,London
Antique Modern Mix,"unit 121, Design Centre South Dome, London",51.4760284,-0.1829163,5.0,London
Beyond Retro Soho,"19-21 Argyll St, London",51.5150107,-0.1411872,4.3,London
PICKNWEIGHT - VINTAGE KILO STORE,"14-18 Neal St, London",51.5138476,-0.1248029,3.6,London
Reign Vintage,"12 Berwick St, London",51.51340130000001,-0.1345882,4.3,London
Wow Retro London Covent Garden,"179 Drury Ln, London",51.51564699999999,-0.1234713,4.3,London
Blackout II - Vintage Clothing London,"51 Endell St, London",51.5148867,-0.125315,3.9,London
Vintage Threads,"69 Neal St, London",51.51494020000001,-0.1266051,4.3,London
Pop Boutique,"30 Short's Gardens, London",51.5144586,-0.1254132,4.1,London
Goldsmith Vintage,"121, 123 Charing Cross Rd, London",51.5149524,-0.1301147,4.2,London
Rokit Covent Garden,"42 Shelton St, London",51.5140748,-0.1244384,4.2,London
goldsmith vintage,"57 Neal St, London",51.51476760000001,-0.1263361,3.4,London
Past Trash,"38 Neal St, London",51.5143694,-0.1253947,4.7,London
Wings Vintage,"105A Euston St., London",51.526494,-0.1363579,4.0,London
Retromania Fara London,"6 Upper Tachbrook St, London",51.4933772,-0.1399568,4.3,London
Dunno. Curated,"8 Berwick St, London",51.5132162,-0.134507,4.7,London
Gong Nong Bing Vintage,"68 Charing Cross Rd, London",51.5124053,-0.1284323,5.0,London
Dream Retro,"2nd Floor, Alfies Antiques Market, 13- 25 Church St, London",51.5241887,-0.1688101,0.0,London
Vintage Modes,"Alfies Antique Market, Church St, London",51.5241887,-0.1688101,0.0,London
COW Vintage,"13 Short's Gardens, London",51.5141663,-0.126386,3.7,London
Chelsea Vintage Couture,"Office - Showroom, BY APPOINTMENT ONLY, Sloane Ave, London",51.4924574,-0.1659658,4.7,London
LanaTS Clothing,"55 Baker St, London",51.5187355,-0.1567089,0.0,London
OOTO LONDON,"Claridge House, 32 Davies St, London",51.512012,-0.1477862,0.0,London
Vintage Clothing,"42 Shelton St, London",51.5140221,-0.1245663,5.0,London
Eddie Wailes Studio,"13 - 25 Church St, London",51.52421589999999,-0.1688751,0.0,London
Good,"33 Neal St, London",51.5142216,-0.1256036,5.0,London
2o2st News,"72 Berwick St, London",51.5147633,-0.1360655,0.0,London
wornwell vintage clothing,"Oxford St, London",51.5165812,-0.1311655,0.0,London
Nikita Sablier,"79 George St, London",51.5171123,-0.1568565,0.0,London
De L'Époque,"8 Cheval Pl, London",51.49900359999999,-0.1667621,5.0,London
All Loved Up Boutique,"All Loved Up Boutique, 91 Charlwood St, London",51.4880187,-0.1412302,5.0,London
Clerkenwell Vintage Fashion Fair,"38-51 Bedford Way, London",51.5234685,-0.1273138,0.0,London
Open for Vintage,"7, 10 Cavendish Square, Chandos St, London",51.5169544,-0.1442532,5.0,London
Dukes Cupboard Limited,"14 Ingestre Pl, London",51.5132008,-0.1357614,4.3,London
Vintage Stockroom,"13 - 25 Church St, London",51.524127,-0.1688328,0.0,London
pillowHeat,"Vans Store, 47 Carnaby St, London",51.5128206,-0.1386783,4.9,London
Good,"180 Queensway, London",51.51557,-0.1880176,5.0,London
Linda Bee,"Alfie’s Antique Market, 13 - 25 Church St, London",51.5241887,-0.1688101,3.7,London
SOMLO - London & OMEGA Vintage,"35-36 Burlington Arcade, London",51.509631,-0.14092,4.5,London
Gillian Horsup,"Alfies Antiques, Alfies Antique Market, 13-25 Church St, London",51.5241887,-0.1688101,5.0,London
American Vintage,"35 Marylebone High St, London",51.5205091,-0.151705,3.4,London
Grays Antique Market,"58 Davies St, London",51.5137017,-0.1486451,4.1,London
Arabella Bianco,"13-25 Church St, London",51.5241255,-0.1688334,5.0,London
Sign of the Times,"5 Elystan St, London",51.490966,-0.1667517,4.3,London
ANTIQUES,London,51.5122569,-0.1546661,4.8,London
Retro Living,"7A Church St, London",51.5244864,-0.1685567,5.0,London
Alfies Antique Market,"13 - 25 Church St, London",51.5241255,-0.1688334,4.3,London
The Vintage House,"42 Old Compton St, London",51.5131282,-0.1316389,4.1,London
Pop Up 38,"18 Broadwick St, London",51.5138414,-0.1354232,5.0,London
Beyond Retro Soho,"19-21 Argyll St, London",51.5150107,-0.1411872,4.3,London
PICKNWEIGHT - VINTAGE KILO STORE,"14-18 Neal St, London",51.5138476,-0.1248029,3.6,London
Reign Vintage,"12 Berwick St, London",51.51340130000001,-0.1345882,4.3,London
Wow Retro London Covent Garden,"179 Drury Ln, London",51.51564699999999,-0.1234713,4.3,London
Blackout II - Vintage Clothing London,"51 Endell St, London",51.5148867,-0.125315,3.9,London
Vintage Threads,"69 Neal St, London",51.51494020000001,-0.1266051,4.3,London
Pop Boutique,"30 Short's Gardens, London",51.5144586,-0.1254132,4.1,London
Goldsmith Vintage,"121, 123 Charing Cross Rd, London",51.5149524,-0.1301147,4.2,London
Rokit Covent Garden,"42 Shelton St, London",51.5140748,-0.1244384,4.2,London
goldsmith vintage,"57 Neal St, London",51.51476760000001,-0.1263361,3.4,London
The Vintage Collection,"Arch 59, Camden Stables Market, London",51.5420455,-0.1469688,5.0,London
Beyond Retro Coal Drops,"Unit 79-81, Coal Drops Yard, London",51.5365259,-0.1259221,4.0,London
Rokit Camden,"225 Camden High St, London",51.5398923,-0.143589,4.1,London
Past Trash,"38 Neal St, London",51.5143694,-0.1253947,4.7,London
Wings Vintage,"105A Euston St., London",51.526494,-0.1363579,4.0,London
St Cyr Vintage,"56 Saddle Row Camden Market, London",51.5421391,-0.1483749,4.3,London
Berty and Gerty Vintage,"53 Camden Lock Pl, London",51.5413907,-0.1465884,0.0,London
What Goes Around Comes Around,"Unit 32, The Stables Market Chalk, Farm Road, London",51.5420969,-0.1466583,3.9,London
Camden Threads - An online shop for the best independent brands and vintage boutiques,"44A Camden Lock Pl, London",51.5414567,-0.1463852,0.0,London
Dunno. Curated,"8 Berwick St, London",51.5132162,-0.134507,4.7,London
Gong Nong Bing Vintage,"68 Charing Cross Rd, London",51.5124053,-0.1284323,5.0,London
Dream Retro,"2nd Floor, Alfies Antiques Market, 13- 25 Church St, London",51.5241887,-0.1688101,0.0,London
Vintage Modes,"Alfies Antique Market, Church St, London",51.5241887,-0.1688101,0.0,London
COW Vintage,"13 Short's Gardens, London",51.5141663,-0.126386,3.7,London
Funkytownshop,"Ground Floor, 232 Camden High St, London",51.5409704,-0.1443065,3.3,London
OuterLimitz Vintage,"12B, Camden Stables Market, Chalk Farm Rd, London",51.5420455,-0.1469688,0.0,London
Modern Age Vintage Clothing,"65 Chalk Farm Rd, London",51.5433049,-0.1503682,3.3,London
LanaTS Clothing,"55 Baker St, London",51.5187355,-0.1567089,0.0,London
OOTO LONDON,"Claridge House, 32 Davies St, London",51.512012,-0.1477862,0.0,London
Vintage Clothing,"42 Shelton St, London",51.5140221,-0.1245663,5.0,London
Eddie Wailes Studio,"13 - 25 Church St, London",51.52421589999999,-0.1688751,0.0,London
A Dandy In Aspic,"Market, 748-749, North Yard Stables, Chalk Farm Rd, London",51.5425015,-0.1490213,3.4,London
Good,"33 Neal St, London",51.5142216,-0.1256036,5.0,London
2o2st News,"72 Berwick St, London",51.5147633,-0.1360655,0.0,London
wornwell vintage clothing,"Oxford St, London",51.5165812,-0.1311655,0.0,London
DreamingLion Vintage,"Unit D28, Horse Tunnel, The Stables Market, Chalk Farm Rd, London",51.5420455,-0.1469688,4.5,London
SK.Vintage,"51 Fortess Rd, London",51.5539851,-0.1406663,4.5,London
Clerkenwell Vintage Fashion Fair,"38-51 Bedford Way, London",51.5234685,-0.1273138,0.0,London
Open for Vintage,"7, 10 Cavendish Square, Chandos St, London",51.5169544,-0.1442532,5.0,London
Dukes Cupboard Limited,"14 Ingestre Pl, London",51.5132008,-0.1357614,4.3,London
Vintage Stockroom,"13 - 25 Church St, London",51.524127,-0.1688328,0.0,London
pillowHeat,"Vans Store, 47 Carnaby St, London",51.5128206,-0.1386783,4.9,London
Good,"180 Queensway, London",51.51557,-0.1880176,5.0,London
Linda Bee,"Alfie’s Antique Market, 13 - 25 Church St, London",51.5241887,-0.1688101,3.7,London
Gillian Horsup,"Alfies Antiques, Alfies Antique Market, 13-25 Church St, London",51.5241887,-0.1688101,5.0,London
The Grandad Company,"47, London",51.5378699,-0.1154254,5.0,London
SoSo Retro,"Unit 527, The Stables Market, Chalk Farm Rd, London",51.5420455,-0.1469688,5.0,London
American Vintage,"35 Marylebone High St, London",51.5205091,-0.151705,3.4,London
Grays Antique Market,"58 Davies St, London",51.5137017,-0.1486451,4.1,London
Peekaboo Vintage Marketplace,"149a Abbey Rd, London",51.540942,-0.1910264,5.0,London
American Vintage,"Stable St, London",51.535973,-0.126182,3.4,London
SOMLO - London & OMEGA Vintage,"35-36 Burlington Arcade, London",51.509631,-0.14092,4.5,London
Collectif Camden Market,"36, Camden's Stables Market, Chalk Farm Rd, London",51.54222439999999,-0.1469208,4.7,London
Exclusive,"2 Flask Walk, London",51.55638070000001,-0.1776995,2.5,London
Vintage Clothing,"53 Chalk Farm Rd, London",51.5430371,-0.1501184,0.0,London
Arabella Bianco,"13-25 Church St, London",51.5241255,-0.1688334,5.0,London
Camden Retro Signs,"8A, The Stables Market, PADDOCK LANE, Chalk Farm Rd, London",51.5420455,-0.1469688,5.0,London
ANTIQUES,London,51.5122569,-0.1546661,4.8,London
Retro Living,"7A Church St, London",51.5244864,-0.1685567,5.0,London
Alfies Antique Market,"13 - 25 Church St, London",51.5241255,-0.1688334,4.3,London
The Vintage Collection,"Arch 59, Camden Stables Market, London",51.5420455,-0.1469688,5.0,London
Beyond Retro Coal Drops,"Unit 79-81, Coal Drops Yard, London",51.5365259,-0.1259221,4.0,London
Rokit Camden,"225 Camden High St, London",51.5398923,-0.143589,4.1,London
St Cyr Vintage,"56 Saddle Row Camden Market, London",51.5421391,-0.1483749,4.3,London
Berty and Gerty Vintage,"53 Camden Lock Pl, London",51.5413907,-0.1465884,0.0,London
What Goes Around Comes Around,"Unit 32, The Stables Market Chalk, Farm Road, London",51.5420969,-0.1466583,3.9,London
Camden Threads - An online shop for the best independent brands and vintage boutiques,"44A Camden Lock Pl, London",51.5414567,-0.1463852,0.0,London
Funkytownshop,"Ground Floor, 232 Camden High St, London",51.5409704,-0.1443065,3.3,London
OuterLimitz Vintage,"12B, Camden Stables Market, Chalk Farm Rd, London",51.5420455,-0.1469688,0.0,London
Modern Age Vintage Clothing,"65 Chalk Farm Rd, London",51.5433049,-0.1503682,3.3,London
Resurrection Boutique,"3, Archway Close, 3 Archway Rd, London",51.5657346,-0.134374,4.2,London
A Dandy In Aspic,"Market, 748-749, North Yard Stables, Chalk Farm Rd, London",51.5425015,-0.1490213,3.4,London
Svarelle,London,51.56526030000001,-0.1196879,0.0,London
Exclusive,"2 Flask Walk, London",51.55638070000001,-0.1776995,2.5,London
DreamingLion Vintage,"Unit D28, Horse Tunnel, The Stables Market, Chalk Farm Rd, London",51.5420455,-0.1469688,4.5,London
SK.Vintage,"51 Fortess Rd, London",51.5539851,-0.1406663,4.5,London
Arts And Vintage,"263 Archway Rd, London",51.5762988,-0.1442271,4.8,London
The Grandad Company,"47, London",51.5378699,-0.1154254,5.0,London
Peekaboo Vintage Marketplace,"149a Abbey Rd, London",51.540942,-0.1910264,5.0,London
American Vintage,"Stable St, London",51.535973,-0.126182,3.4,London
Collectif Camden Market,"36, Camden's Stables Market, Chalk Farm Rd, London",51.54222439999999,-0.1469208,4.7,London
Alpha Vintage Store,"Hornsey Rd, London",51.55952120000001,-0.1144241,0.0,London
Vintage Clothing,"53 Chalk Farm Rd, London",51.5430371,-0.1501184,0.0,London
Camden Retro Signs,"8A, The Stables Market, PADDOCK LANE, Chalk Farm Rd, London",51.5420455,-0.1469688,5.0,London
rollos vintage furniture,"391 Archway Rd, London",51.5783701,-0.1490951,5.0,London
Roomscape,"In, Belmont St, London",51.54479000000001,-0.1512781,0.0,London
Camden Thrift Store,"51 Chalk Farm Rd, London",51.543116,-0.1494112,4.5,London
Gonnermann,"408-410 Archway Rd, London",51.5766188,-0.1441633,4.9,London
Aladdin's Vintage Furniture & Cafe,"1 Hazellville Rd, London",51.5695455,-0.1243871,4.7,London
Vintage Luggage,"18 Delancey St, London",51.5368475,-0.1426188,4.2,London
Antique Kelims,"Highgate Rd, London",51.5529237,-0.1420899,0.0,London
Traid Camden,"154 Camden High St, London",51.5385937,-0.1421116,3.7,London
Vivien of Holloway,"294 Holloway Rd, London",51.55451430000001,-0.1142869,4.4,London
Little Paris Store,"39 Park Rd, London",51.580974,-0.125502,4.5,London
Episode,"26 Chalk Farm Rd, London",51.542509,-0.146978,0.0,London
CIRCA VINTAGE,"87a Lansdowne Way, London",51.4748348,-0.1286932,4.7,London
TTFN Vintage,"106-108 Denmark Hill, London",51.4709291,-0.0930882,5.0,London
Leona,"Brixton Village, Unit 5 Coldharbour Ln, London",51.4621557,-0.1114804,5.0,London
Vintage80scasuals,"Unit 63, 105 Culvert Rd, London",51.47090439999999,-0.1566805,0.0,London
Rejuvenate - Something for everyone,"41-42 Coldharbour Ln, London",51.4625934,-0.1116695,0.0,London
Bella West,"Granville Arcade, Unit 76 Coldharbour Ln, London",51.4624417,-0.1118706,3.7,London
Eclectica (Clapham),"803 Wandsworth Rd, London",51.4665809,-0.1484604,4.9,London
My Vintage J Box,"58 Streatham High Rd, London",51.4367663,-0.1280156,5.0,London
NewVintage.co.uk,"256 Battersea Park Rd, London",51.4720756,-0.1661966,4.1,London
Morbleu,"135 Dulwich Rd, London",51.4526729,-0.1027664,4.4,London
Eccles Road Antiques,"60 Eccles Rd, London",51.46180829999999,-0.1634526,4.9,London
Northcote Road Antiques Market,"155a Northcote Rd, London",51.455341,-0.1645277,4.4,London
Vintage Chairs,"25 Gubyon Ave, London",51.4554139,-0.102013,0.0,London
Traid,"2 Acre Ln, London",51.4612282,-0.1162417,4.1,London
Loved again Ltd.,"140 Stockwell Rd, London",51.4673937,-0.1182007,5.0,London
Retro Furniture & Services,"338 Balham High Rd, London",51.4358639,-0.1596233,5.0,London
Saluto London,"Battersea Business Centre, London",51.4650292,-0.1549833,5.0,London
CIRCA VINTAGE,"87a Lansdowne Way, London",51.4748348,-0.1286932,4.7,London
TTFN Vintage,"106-108 Denmark Hill, London",51.4709291,-0.0930882,5.0,London
Retromania Fara London,"6 Upper Tachbrook St, London",51.4933772,-0.1399568,4.3,London
Leona,"Brixton Village, Unit 5 Coldharbour Ln, London",51.4621557,-0.1114804,5.0,London
Vintage80scasuals,"Unit 63, 105 Culvert Rd, London",51.47090439999999,-0.1566805,0.0,London
Rejuvenate - Something for everyone,"41-42 Coldharbour Ln, London",51.4625934,-0.1116695,0.0,London
Bella West,"Granville Arcade, Unit 76 Coldharbour Ln, London",51.4624417,-0.1118706,3.7,London
Eclectica (Clapham),"803 Wandsworth Rd, London",51.4665809,-0.1484604,4.9,London
All Loved Up Boutique,"All Loved Up Boutique, 91 Charlwood St, London",51.4880187,-0.1412302,5.0,London
livewithfashion,"Alpha House, 100 Borough High St, London",51.5032218,-0.09196889999999999,0.0,London
Academy Vintage Repro,"229 Waterloo Rd, London",51.4998143,-0.1068619,0.0,London
Chelsea Vintage Couture,"Office - Showroom, BY APPOINTMENT ONLY, Sloane Ave, London",51.4924574,-0.1659658,4.7,London
De L'Époque,"8 Cheval Pl, London",51.49900359999999,-0.1667621,5.0,London
NewVintage.co.uk,"256 Battersea Park Rd, London",51.4720756,-0.1661966,4.1,London
Butterworth Christopher,"71 Pimlico Rd, London",51.490362,-0.1535057,3.7,London
Beyond Retro Soho,"19-21 Argyll St, London",51.5150107,-0.1411872,4.3,London
PICKNWEIGHT - VINTAGE KILO STORE,"14-18 Neal St, London",51.5138476,-0.1248029,3.6,London
Reign Vintage,"12 Berwick St, London",51.51340130000001,-0.1345882,4.3,London
Wow Retro London Covent Garden,"179 Drury Ln, London",51.51564699999999,-0.1234713,4.3,London
Blackout II - Vintage Clothing London,"51 Endell St, London",51.5148867,-0.125315,3.9,London
Vintage Threads,"69 Neal St, London",51.51494020000001,-0.1266051,4.3,London
Pop Boutique,"30 Short's Gardens, London",51.5144586,-0.1254132,4.1,London
Goldsmith Vintage,"121, 123 Charing Cross Rd, London",51.5149524,-0.1301147,4.2,London
Rokit Covent Garden,"42 Shelton St, London",51.5140748,-0.1244384,4.2,London
goldsmith vintage,"57 Neal St, London",51.51476760000001,-0.1263361,3.4,London
Past Trash,"38 Neal St, London",51.5143694,-0.1253947,4.7,London
Wings Vintage,"105A Euston St., London",51.526494,-0.1363579,4.0,London
Retromania Fara London,"6 Upper Tachbrook St, London",51.4933772,-0.1399568,4.3,London
Dunno. Curated,"8 Berwick St, London",51.5132162,-0.134507,4.7,London
Gong Nong Bing Vintage,"68 Charing Cross Rd, London",51.5124053,-0.1284323,5.0,London
COW Vintage,"13 Short's Gardens, London",51.5141663,-0.126386,3.7,London
Pennies Vintage,"41A Amwell St, London",51.5292864,-0.1104796,4.7,London
LanaTS Clothing,"55 Baker St, London",51.5187355,-0.1567089,0.0,London
OOTO LONDON,"Claridge House, 32 Davies St, London",51.512012,-0.1477862,0.0,London
Vintage Clothing,"42 Shelton St, London",51.5140221,-0.1245663,5.0,London
Hartex,"Unit 9, Gabriels Wharf, 56 Upper Ground, London",51.5079685,-0.1103793,4.7,London
Good,"33 Neal St, London",51.5142216,-0.1256036,5.0,London
2o2st News,"72 Berwick St, London",51.5147633,-0.1360655,0.0,London
wornwell vintage clothing,"Oxford St, London",51.5165812,-0.1311655,0.0,London
All Loved Up Boutique,"All Loved Up Boutique, 91 Charlwood St, London",51.4880187,-0.1412302,5.0,London
Clerkenwell Vintage Fashion Fair,"38-51 Bedford Way, London",51.5234685,-0.1273138,0.0,London
Open for Vintage,"7, 10 Cavendish Square, Chandos St, London",51.5169544,-0.1442532,5.0,London
Dukes Cupboard Limited,"14 Ingestre Pl, London",51.5132008,-0.1357614,4.3,London
livewithfashion,"Alpha House, 100 Borough High St, London",51.5032218,-0.09196889999999999,0.0,London
pillowHeat,"Vans Store, 47 Carnaby St, London",51.5128206,-0.1386783,4.9,London
Academy Vintage Repro,"229 Waterloo Rd, London",51.4998143,-0.1068619,0.0,London
SOMLO - London & OMEGA Vintage,"35-36 Burlington Arcade, London",51.509631,-0.14092,4.5,London
Chelsea Vintage Couture,"Office - Showroom, BY APPOINTMENT ONLY, Sloane Ave, London",51.4924574,-0.1659658,4.7,London
American Vintage,"35 Marylebone High St, London",51.5205091,-0.151705,3.4,London
Grays Antique Market,"58 Davies St, London",51.5137017,-0.1486451,4.1,London
De L'Époque,"8 Cheval Pl, London",51.49900359999999,-0.1667621,5.0,London
ANTIQUES,London,51.5122569,-0.1546661,4.8,London
The Vintage House,"42 Old Compton St, London",51.5131282,-0.1316389,4.1,London
Butterworth Christopher,"71 Pimlico Rd, London",51.490362,-0.1535057,3.7,London
Beyond Retro Soho,"19-21 Argyll St, London",51.5150107,-0.1411872,4.3,London
PICKNWEIGHT - VINTAGE KILO STORE,"14-18 Neal St, London",51.5138476,-0.1248029,3.6,London
Reign Vintage,"12 Berwick St, London",51.51340130000001,-0.1345882,4.3,London
Wow Retro London Covent Garden,"179 Drury Ln, London",51.51564699999999,-0.1234713,4.3,London
Blackout II - Vintage Clothing London,"51 Endell St, London",51.5148867,-0.125315,3.9,London
Blue17 Vintage clothing,"162 Ground floor & basement, London",51.5512295,-0.1101328,4.7,London
Magpie Vintage,"3 Camden Psge, London",51.5345635,-0.1043199,4.7,London
Vintage Threads,"69 Neal St, London",51.51494020000001,-0.1266051,4.3,London
Pop Boutique,"30 Short's Gardens, London",51.5144586,-0.1254132,4.1,London
Goldsmith Vintage,"121, 123 Charing Cross Rd, London",51.5149524,-0.1301147,4.2,London
Rokit Covent Garden,"42 Shelton St, London",51.5140748,-0.1244384,4.2,London
goldsmith vintage,"57 Neal St, London",51.51476760000001,-0.1263361,3.4,London
The Vintage Collection,"Arch 59, Camden Stables Market, London",51.5420455,-0.1469688,5.0,London
Beyond Retro Coal Drops,"Unit 79-81, Coal Drops Yard, London",51.5365259,-0.1259221,4.0,London
Rokit Camden,"225 Camden High St, London",51.5398923,-0.143589,4.1,London
Past Trash,"38 Neal St, London",51.5143694,-0.1253947,4.7,London
Wings Vintage,"105A Euston St., London",51.526494,-0.1363579,4.0,London
St Cyr Vintage,"56 Saddle Row Camden Market, London",51.5421391,-0.1483749,4.3,London
Berty and Gerty Vintage,"53 Camden Lock Pl, London",51.5413907,-0.1465884,0.0,London
What Goes Around Comes Around,"Unit 32, The Stables Market Chalk, Farm Road, London",51.5420969,-0.1466583,3.9,London
Camden Threads - An online shop for the best independent brands and vintage boutiques,"44A Camden Lock Pl, London",51.5414567,-0.1463852,0.0,London
Dunno. Curated,"8 Berwick St, London",51.5132162,-0.134507,4.7,London
Gong Nong Bing Vintage,"68 Charing Cross Rd, London",51.5124053,-0.1284323,5.0,London
COW Vintage,"13 Short's Gardens, London",51.5141663,-0.126386,3.7,London
Funkytownshop,"Ground Floor, 232 Camden High St, London",51.5409704,-0.1443065,3.3,London
OuterLimitz Vintage,"12B, Camden Stables Market, Chalk Farm Rd, London",51.5420455,-0.1469688,0.0,London
Miniola Vintage,"65 Cross St, London",51.539392,-0.101881,0.0,London
Modern Age Vintage Clothing,"65 Chalk Farm Rd, London",51.5433049,-0.1503682,3.3,London
Pennies Vintage,"41A Amwell St, London",51.5292864,-0.1104796,4.7,London
LanaTS Clothing,"55 Baker St, London",51.5187355,-0.1567089,0.0,London
OOTO LONDON,"Claridge House, 32 Davies St, London",51.512012,-0.1477862,0.0,London
Vintage Clothing,"42 Shelton St, London",51.5140221,-0.1245663,5.0,London
Dreamtime,"14 Pierrepoint Arcade, London",51.5345842,-0.1037696,1.0,London
A Dandy In Aspic,"Market, 748-749, North Yard Stables, Chalk Farm Rd, London",51.5425015,-0.1490213,3.4,London
Good,"33 Neal St, London",51.5142216,-0.1256036,5.0,London
2o2st News,"72 Berwick St, London",51.5147633,-0.1360655,0.0,London
The Grandad Company,"47, London",51.5378699,-0.1154254,5.0,London
wornwell vintage clothing,"Oxford St, London",51.5165812,-0.1311655,0.0,London
DreamingLion Vintage,"Unit D28, Horse Tunnel, The Stables Market, Chalk Farm Rd, London",51.5420455,-0.1469688,4.5,London
SK.Vintage,"51 Fortess Rd, London",51.5539851,-0.1406663,4.5,London
Clerkenwell Vintage Fashion Fair,"38-51 Bedford Way, London",51.5234685,-0.1273138,0.0,London
Open for Vintage,"7, 10 Cavendish Square, Chandos St, London",51.5169544,-0.1442532,5.0,London
Dukes Cupboard Limited,"14 Ingestre Pl, London",51.5132008,-0.1357614,4.3,London
pillowHeat,"Vans Store, 47 Carnaby St, London",51.5128206,-0.1386783,4.9,London
Laura von Behr Vintage,"Canonbury Yard, Building 1, 5A, 190 New N Rd, London",51.5377403,-0.0908213,5.0,London
"Camden Passage, Islington","1 Camden Psge, London",51.5346814,-0.1039732,4.3,London
Hartex,"Unit 9, Gabriels Wharf, 56 Upper Ground, London",51.5079685,-0.1103793,4.7,London
American Vintage,"35 Marylebone High St, London",51.5205091,-0.151705,3.4,London
Grays Antique Market,"58 Davies St, London",51.5137017,-0.1486451,4.1,London
SOMLO - London & OMEGA Vintage,"35-36 Burlington Arcade, London",51.509631,-0.14092,4.5,London
American Vintage,"Stable St, London",51.535973,-0.126182,3.4,London
Collectif Camden Market,"36, Camden's Stables Market, Chalk Farm Rd, London",51.54222439999999,-0.1469208,4.7,London
Vintage Clothing,"53 Chalk Farm Rd, London",51.5430371,-0.1501184,0.0,London
Vivien of Holloway,"294 Holloway Rd, London",51.55451430000001,-0.1142869,4.4,London
Camden Retro Signs,"8A, The Stables Market, PADDOCK LANE, Chalk Farm Rd, London",51.5420455,-0.1469688,5.0,London
ANTIQUES,London,51.5122569,-0.1546661,4.8,London
Seconda Mano - Clothing Agency,"114 Upper St, London",51.5381916,-0.1026253,4.0,London
Leos boutique uk clothing popup stall,"Pierrepoint Arcade, Camden Psge, London",51.5355171,-0.1032303,5.0,London
Camden Thrift Store,"51 Chalk Farm Rd, London",51.543116,-0.1494112,4.5,London
The Vintage House,"42 Old Compton St, London",51.5131282,-0.1316389,4.1,London
Blue17 Vintage clothing,"162 Ground floor & basement, London",51.5512295,-0.1101328,4.7,London
The Vintage Collection,"Arch 59, Camden Stables Market, London",51.5420455,-0.1469688,5.0,London
Beyond Retro Coal Drops,"Unit 79-81, Coal Drops Yard, London",51.5365259,-0.1259221,4.0,London
Rokit Camden,"225 Camden High St, London",51.5398923,-0.143589,4.1,London
St Cyr Vintage,"56 Saddle Row Camden Market, London",51.5421391,-0.1483749,4.3,London
Berty and Gerty Vintage,"53 Camden Lock Pl, London",51.5413907,-0.1465884,0.0,London
What Goes Around Comes Around,"Unit 32, The Stables Market Chalk, Farm Road, London",51.5420969,-0.1466583,3.9,London
Camden Threads - An online shop for the best independent brands and vintage boutiques,"44A Camden Lock Pl, London",51.5414567,-0.1463852,0.0,London
Funkytownshop,"Ground Floor, 232 Camden High St, London",51.5409704,-0.1443065,3.3,London
OuterLimitz Vintage,"12B, Camden Stables Market, Chalk Farm Rd, London",51.5420455,-0.1469688,0.0,London
Miniola Vintage,"65 Cross St, London",51.539392,-0.101881,0.0,London
Modern Age Vintage Clothing,"65 Chalk Farm Rd, London",51.5433049,-0.1503682,3.3,London
Resurrection Boutique,"3, Archway Close, 3 Archway Rd, London",51.5657346,-0.134374,4.2,London
A Dandy In Aspic,"Market, 748-749, North Yard Stables, Chalk Farm Rd, London",51.5425015,-0.1490213,3.4,London
Svarelle,London,51.56526030000001,-0.1196879,0.0,London
The Grandad Company,"47, London",51.5378699,-0.1154254,5.0,London
Alpha Vintage Store,"Hornsey Rd, London",51.55952120000001,-0.1144241,0.0,London
DreamingLion Vintage,"Unit D28, Horse Tunnel, The Stables Market, Chalk Farm Rd, London",51.5420455,-0.1469688,4.5,London
Magpie Vintage,"3 Camden Psge, London",51.5345635,-0.1043199,4.7,London
SK.Vintage,"51 Fortess Rd, London",51.5539851,-0.1406663,4.5,London
Cats In Orbit,"54 Eade Rd, London",51.5740932,-0.09484800000000002,1.0,London
Arts And Vintage,"263 Archway Rd, London",51.5762988,-0.1442271,4.8,London
Dreamtime,"14 Pierrepoint Arcade, London",51.5345842,-0.1037696,1.0,London
Laura von Behr Vintage,"Canonbury Yard, Building 1, 5A, 190 New N Rd, London",51.5377403,-0.0908213,5.0,London
American Vintage,"Stable St, London",51.535973,-0.126182,3.4,London
Collectif Camden Market,"36, Camden's Stables Market, Chalk Farm Rd, London",51.54222439999999,-0.1469208,4.7,London
"Camden Passage, Islington","1 Camden Psge, London",51.5346814,-0.1039732,4.3,London
Vintage Clothing,"53 Chalk Farm Rd, London",51.5430371,-0.1501184,0.0,London
Vivien of Holloway,"294 Holloway Rd, London",51.55451430000001,-0.1142869,4.4,London
Camden Retro Signs,"8A, The Stables Market, PADDOCK LANE, Chalk Farm Rd, London",51.5420455,-0.1469688,5.0,London
Seconda Mano - Clothing Agency,"114 Upper St, London",51.5381916,-0.1026253,4.0,London
rollos vintage furniture,"391 Archway Rd, London",51.5783701,-0.1490951,5.0,London
Vintage Concept Store,"658 Holloway Rd, London",51.56258039999999,-0.1263506,0.0,London
Leos boutique uk clothing popup stall,"Pierrepoint Arcade, Camden Psge, London",51.5355171,-0.1032303,5.0,London
House of Modern Vintage,"Wightman Rd, London",51.5793317,-0.1041108,4.9,London
Camden Thrift Store,"51 Chalk Farm Rd, London",51.543116,-0.1494112,4.5,London
Aladdin's Vintage Furniture & Cafe,"1 Hazellville Rd, London",51.5695455,-0.1243871,4.7,London
Past Caring London,"54 Essex Rd, London",51.5377097,-0.0997412,4.6,London
BijouxB Vintage Jewellery - Islington,"1-6 Colinsdale Estate, Camden Walk, London",51.5354176,-0.1031492,3.0,London
D & A Binder - Antique Shop Cabinets & Bespoke Shopfittings for Hire or Purchase,"101 Holloway Rd, London",51.548067,-0.1066036,4.9,London
Gonnermann,"408-410 Archway Rd, London",51.5766188,-0.1441633,4.9,London
Vintage Luggage,"18 Delancey St, London",51.5368475,-0.1426188,4.2,London
Little Paris Store,"39 Park Rd, London",51.580974,-0.125502,4.5,London
Episode,"26 Chalk Farm Rd, London",51.542509,-0.146978,0.0,London
Koo Style,"Unit 14/8, Camden Stables Market, Chalk Farm Rd, London",51.54197300000001,-0.1477216,4.2,London
CIRCA VINTAGE,"87a Lansdowne Way, London",51.4748348,-0.1286932,4.7,London
TTFN Vintage,"106-108 Denmark Hill, London",51.4709291,-0.0930882,5.0,London
Leona,"Brixton Village, Unit 5 Coldharbour Ln, London",51.4621557,-0.1114804,5.0,London
Blue Feather,"14 Melbourne Grove, London",51.4604353,-0.0799164,4.9,London
Little Sister,"Market Peckham, 133a Rye Ln, London",51.46982449999999,-0.0680959,5.0,London
Rejuvenate - Something for everyone,"41-42 Coldharbour Ln, London",51.4625934,-0.1116695,0.0,London
Rye Not Retro,"62 Peckham Rye, London",51.4649691,-0.06665789999999999,4.3,London
Bella West,"Granville Arcade, Unit 76 Coldharbour Ln, London",51.4624417,-0.1118706,3.7,London
National Vintage League Ltd.,"Unit 2, Print Village, 58 Chadwick Rd, London",51.4683982,-0.0749778,5.0,London
My Vintage J Box,"58 Streatham High Rd, London",51.4367663,-0.1280156,5.0,London
Morbleu,"135 Dulwich Rd, London",51.4526729,-0.1027664,4.4,London
Windsor Antique Emporium,"405 Lordship Ln, London",51.448623,-0.0735941,5.0,London
TRAID Peckham,"14-16 Rye Ln, London",51.4726379,-0.0698983,4.2,London
Vintage Chairs,"25 Gubyon Ave, London",51.4554139,-0.102013,0.0,London
Frost,"144 Bellenden Rd, London",51.4681623,-0.0726333,5.0,London
Traid,"2 Acre Ln, London",51.4612282,-0.1162417,4.1,London
Loved again Ltd.,"140 Stockwell Rd, London",51.4673937,-0.1182007,5.0,London
CIRCA VINTAGE,"87a Lansdowne Way, London",51.4748348,-0.1286932,4.7,London
TTFN Vintage,"106-108 Denmark Hill, London",51.4709291,-0.0930882,5.0,London
Pezze,"vinegar yard, St Thomas St, London",51.5026705,-0.0833746,5.0,London
Leona,"Brixton Village, Unit 5 Coldharbour Ln, London",51.4621557,-0.1114804,5.0,London
Blue Feather,"14 Melbourne Grove, London",51.4604353,-0.0799164,4.9,London
Little Sister,"Market Peckham, 133a Rye Ln, London",51.46982449999999,-0.0680959,5.0,London
Rejuvenate - Something for everyone,"41-42 Coldharbour Ln, London",51.4625934,-0.1116695,0.0,London
Rye Not Retro,"62 Peckham Rye, London",51.4649691,-0.06665789999999999,4.3,London
Bella West,"Granville Arcade, Unit 76 Coldharbour Ln, London",51.4624417,-0.1118706,3.7,London
National Vintage League Ltd.,"Unit 2, Print Village, 58 Chadwick Rd, London",51.4683982,-0.0749778,5.0,London
livewithfashion,"Alpha House, 100 Borough High St, London",51.5032218,-0.09196889999999999,0.0,London
Academy Vintage Repro,"229 Waterloo Rd, London",51.4998143,-0.1068619,0.0,London
Retromania Fara London,"6 Upper Tachbrook St, London",51.4933772,-0.1399568,4.3,London
ACADEMY COSTUMES & REPRODUCTIONS,"229 Waterloo Rd, London",51.4998143,-0.1068619,5.0,London
Flea London Vintage & Makers Market,"Vinegar Yard, St Thomas St, London",51.50259699999999,-0.08344649999999999,4.0,London
All Loved Up Boutique,"All Loved Up Boutique, 91 Charlwood St, London",51.4880187,-0.1412302,5.0,London
Bermondsey Antique Market,"11 Bermondsey Sq, London",51.4972798,-0.0812958,3.9,London
The Rabbithole,"Vinegar Yard, 72-82 St Thomas St, London",51.5028073,-0.0838078,5.0,London
PICKNWEIGHT - VINTAGE KILO STORE,"14-18 Neal St, London",51.5138476,-0.1248029,3.6,London
Reign Vintage,"12 Berwick St, London",51.51340130000001,-0.1345882,4.3,London
Hunky Dory Vintage,"226 Brick Ln, London",51.52473939999999,-0.0715639,4.5,London
Wow Retro London Covent Garden,"179 Drury Ln, London",51.51564699999999,-0.1234713,4.3,London
The Brick Lane Vintage Market,"85 Brick Ln, London",51.52079579999999,-0.0720977,4.3,London
Blackout II - Vintage Clothing London,"51 Endell St, London",51.5148867,-0.125315,3.9,London
House of Vintage Shoreditch,"4 Cheshire St, London",51.5234455,-0.07115189999999999,3.7,London
Vintage Threads,"69 Neal St, London",51.51494020000001,-0.1266051,4.3,London
Brick Lane Vintage,"182 Brick Ln, London",51.52353850000001,-0.07130059999999999,4.2,London
Pop Boutique,"30 Short's Gardens, London",51.5144586,-0.1254132,4.1,London
Goldsmith Vintage,"121, 123 Charing Cross Rd, London",51.5149524,-0.1301147,4.2,London
Vintage Basement,"7 Cheshire St, London",51.5235678,-0.07095209999999999,4.4,London
Rokit Covent Garden,"42 Shelton St, London",51.5140748,-0.1244384,4.2,London
Magpie Vintage,"F Block, Magpie Vintage Brick Lane Vintage Market, 85 Brick Ln, London",51.520781,-0.0719501,5.0,London
goldsmith vintage,"57 Neal St, London",51.51476760000001,-0.1263361,3.4,London
Rokit,"101 Brick Ln, London",51.5224997,-0.0716904,4.1,London
SO VINTAGE LONDON,"Old Spitalfields Market, 16 Horner Square, Spitalfields, London",51.5196411,-0.0756105,3.0,London
Levisons Vintage Clothing,"1 Cheshire St, Brick Ln, London",51.5235518,-0.0711432,4.3,London
Past Trash,"38 Neal St, London",51.5143694,-0.1253947,4.7,London
Wings Vintage,"105A Euston St., London",51.526494,-0.1363579,4.0,London
ATIKA,"55-59 Hanbury St, London",51.52037370000001,-0.07094779999999999,4.3,London
The yard,"115 Brick Ln, London",51.5204843,-0.07386910000000001,0.0,London
SCOUT VINTAGE,"108 Commercial St, London",51.5200921,-0.0742704,4.5,London
Collectif,"71 Brushfield St, London",51.5192388,-0.07506170000000001,4.4,London
VOUT,"95 Columbia Rd, London",51.5299168,-0.0687478,5.0,London
Vintage Paradise,"220 Brick Ln, London",51.5245456,-0.0715203,4.3,London
Vintage Planet,"Unit 5/6, Vintage Planet, Brick Lane Vintage Market B4, 91 Brick Ln, London",51.5212201,-0.0719517,4.3,London
Pezze,"vinegar yard, St Thomas St, London",51.5026705,-0.0833746,5.0,London
Dunno. Curated,"8 Berwick St, London",51.5132162,-0.134507,4.7,London
Non Stop Vintage,"117c Brick Ln, London",51.5238695,-0.0715777,2.8,London
Gong Nong Bing Vintage,"68 Charing Cross Rd, London",51.5124053,-0.1284323,5.0,London
COW Vintage,"13 Short's Gardens, London",51.5141663,-0.126386,3.7,London
House of Vintage,"388 Old St, London",51.5270585,-0.0782834,0.0,London
Love Leather THE VINTAGE MARKET,"85 Brick Ln, London",51.5206389,-0.0719332,4.7,London
Pennies Vintage,"41A Amwell St, London",51.5292864,-0.1104796,4.7,London
Thrifted.com @ Brick Lane,"Vintage Market Shoreditch, Unit 30, 85 Brick Ln, London",51.520781,-0.0719501,5.0,London
Vintage Clothing,"42 Shelton St, London",51.5140221,-0.1245663,5.0,London
Vintage Velvet Clothing,"85 Brick Ln, London",51.52086689999999,-0.0720324,0.0,London
London Vintage,"5 Cheshire St, London",51.5235908,-0.0710595,5.0,London
Cream Vintage London,"158 Brick Ln, London",51.52206469999999,-0.07159839999999999,5.0,London
Here After,"151 Brick Ln, London",51.5242606,-0.07167200000000001,3.6,London
Sunday market stock vintage,"106 Sclater St, London",51.5236031,-0.0734318,0.0,London
Pink Ink,"Vintage market, 85 Brick Ln, London",51.520781,-0.0719501,0.0,London
Hartex,"Unit 9, Gabriels Wharf, 56 Upper Ground, London",51.5079685,-0.1103793,4.7,London
Good,"33 Neal St, London",51.5142216,-0.1256036,5.0,London
Original Material,"6 Cheshire St, London",51.5234368,-0.0711019,5.0,London
2o2st News,"72 Berwick St, London",51.5147633,-0.1360655,0.0,London
wornwell vintage clothing,"Oxford St, London",51.5165812,-0.1311655,0.0,London
Future Vintage,"98 Columbia Rd, London",51.528632,-0.0704688,0.0,London
Serotonin Vintage London,"194 Brick Ln, London",51.5238457,-0.0713949,4.6,London
Archive Six,"5 Calvert Ave, London",51.5264278,-0.0761304,0.0,London
Vintage store,"148 Brick Ln, London",51.5213356,-0.0716821,0.0,London
Clerkenwell Vintage Fashion Fair,"38-51 Bedford Way, London",51.5234685,-0.1273138,0.0,London
Vintage Heaven,"82 Columbia Rd, London",51.5284208,-0.07090919999999999,4.5,London
Dukes Cupboard Limited,"14 Ingestre Pl, London",51.5132008,-0.1357614,4.3,London
livewithfashion,"Alpha House, 100 Borough High St, London",51.5032218,-0.09196889999999999,0.0,London
Beyond Retro Soho,"19-21 Argyll St, London",51.5150107,-0.1411872,4.3,London
Bread and Butter Collection,"72 Rivington St, London",51.5261211,-0.0792861,5.0,London
British Vintage,"City Rd, London",51.5291548,-0.09518019999999999,0.0,London
pillowHeat,"Vans Store, 47 Carnaby St, London",51.5128206,-0.1386783,4.9,London
PICKNWEIGHT - VINTAGE KILO STORE,"14-18 Neal St, London",51.5138476,-0.1248029,3.6,London
Reign Vintage,"12 Berwick St, London",51.51340130000001,-0.1345882,4.3,London
Hunky Dory Vintage,"226 Brick Ln, London",51.52473939999999,-0.0715639,4.5,London
Beyond Retro Dalston,"92-100 Stoke Newington Rd, London",51.5533702,-0.0746013,4.5,London
Wow Retro London Covent Garden,"179 Drury Ln, London",51.51564699999999,-0.1234713,4.3,London
The Brick Lane Vintage Market,"85 Brick Ln, London",51.52079579999999,-0.0720977,4.3,London
Blackout II - Vintage Clothing London,"51 Endell St, London",51.5148867,-0.125315,3.9,London
Mero Retro,"2 Bradbury St, London",51.5486303,-0.07583070000000001,5.0,London
Blue17 Vintage clothing,"162 Ground floor & basement, London",51.5512295,-0.1101328,4.7,London
House of Vintage Shoreditch,"4 Cheshire St, London",51.5234455,-0.07115189999999999,3.7,London
Magpie Vintage,"3 Camden Psge, London",51.5345635,-0.1043199,4.7,London
Vintage Threads,"69 Neal St, London",51.51494020000001,-0.1266051,4.3,London
Brick Lane Vintage,"182 Brick Ln, London",51.52353850000001,-0.07130059999999999,4.2,London
Pop Boutique,"30 Short's Gardens, London",51.5144586,-0.1254132,4.1,London
Goldsmith Vintage,"121, 123 Charing Cross Rd, London",51.5149524,-0.1301147,4.2,London
Vintage Basement,"7 Cheshire St, London",51.5235678,-0.07095209999999999,4.4,London
Rokit Covent Garden,"42 Shelton St, London",51.5140748,-0.1244384,4.2,London
Magpie Vintage,"F Block, Magpie Vintage Brick Lane Vintage Market, 85 Brick Ln, London",51.520781,-0.0719501,5.0,London
goldsmith vintage,"57 Neal St, London",51.51476760000001,-0.1263361,3.4,London
Rokit,"101 Brick Ln, London",51.5224997,-0.0716904,4.1,London
Beyond Retro Coal Drops,"Unit 79-81, Coal Drops Yard, London",51.5365259,-0.1259221,4.0,London
SO VINTAGE LONDON,"Old Spitalfields Market, 16 Horner Square, Spitalfields, London",51.5196411,-0.0756105,3.0,London
Levisons Vintage Clothing,"1 Cheshire St, Brick Ln, London",51.5235518,-0.0711432,4.3,London
Past Trash,"38 Neal St, London",51.5143694,-0.1253947,4.7,London
Wings Vintage,"105A Euston St., London",51.526494,-0.1363579,4.0,London
ATIKA,"55-59 Hanbury St, London",51.52037370000001,-0.07094779999999999,4.3,London
The yard,"115 Brick Ln, London",51.5204843,-0.07386910000000001,0.0,London
VOUT,"95 Columbia Rd, London",51.5299168,-0.0687478,5.0,London
SCOUT VINTAGE,"108 Commercial St, London",51.5200921,-0.0742704,4.5,London
Collectif,"71 Brushfield St, London",51.5192388,-0.07506170000000001,4.4,London
Vintage Paradise,"220 Brick Ln, London",51.5245456,-0.0715203,4.3,London
Vintage Planet,"Unit 5/6, Vintage Planet, Brick Lane Vintage Market B4, 91 Brick Ln, London",51.5212201,-0.0719517,4.3,London
Dunno. Curated,"8 Berwick St, London",51.5132162,-0.134507,4.7,London
Non Stop Vintage,"117c Brick Ln, London",51.5238695,-0.0715777,2.8,London
Gong Nong Bing Vintage,"68 Charing Cross Rd, London",51.5124053,-0.1284323,5.0,London
COW Vintage,"13 Short's Gardens, London",51.5141663,-0.126386,3.7,London
House of Vintage,"388 Old St, London",51.5270585,-0.0782834,0.0,London
Miniola Vintage,"65 Cross St, London",51.539392,-0.101881,0.0,London
Love Leather THE VINTAGE MARKET,"85 Brick Ln, London",51.5206389,-0.0719332,4.7,London
Pennies Vintage,"41A Amwell St, London",51.5292864,-0.1104796,4.7,London
Thrifted.com @ Brick Lane,"Vintage Market Shoreditch, Unit 30, 85 Brick Ln, London",51.520781,-0.0719501,5.0,London
Vintage Clothing,"42 Shelton St, London",51.5140221,-0.1245663,5.0,London
Vintage Velvet Clothing,"85 Brick Ln, London",51.52086689999999,-0.0720324,0.0,London
London Vintage,"5 Cheshire St, London",51.5235908,-0.0710595,5.0,London
Cream Vintage London,"158 Brick Ln, London",51.52206469999999,-0.07159839999999999,5.0,London
Dreamtime,"14 Pierrepoint Arcade, London",51.5345842,-0.1037696,1.0,London
Here After,"151 Brick Ln, London",51.5242606,-0.07167200000000001,3.6,London
Laura von Behr Vintage,"Canonbury Yard, Building 1, 5A, 190 New N Rd, London",51.5377403,-0.0908213,5.0,London
Sunday market stock vintage,"106 Sclater St, London",51.5236031,-0.0734318,0.0,London
Pink Ink,"Vintage market, 85 Brick Ln, London",51.520781,-0.0719501,0.0,London
Good,"33 Neal St, London",51.5142216,-0.1256036,5.0,London
Original Material,"6 Cheshire St, London",51.5234368,-0.0711019,5.0,London
2o2st News,"72 Berwick St, London",51.5147633,-0.1360655,0.0,London
The Grandad Company,"47, London",51.5378699,-0.1154254,5.0,London
PEZZE,"17 Amhurst Terrace, London",51.5547934,-0.06726979999999999,5.0,London
wornwell vintage clothing,"Oxford St, London",51.5165812,-0.1311655,0.0,London
Future Vintage,"98 Columbia Rd, London",51.528632,-0.0704688,0.0,London
Serotonin Vintage London,"194 Brick Ln, London",51.5238457,-0.0713949,4.6,London
Vintage store,"148 Brick Ln, London",51.5213356,-0.0716821,0.0,London
twos,"258 Hackney Rd, London",51.53086829999999,-0.06938029999999999,5.0,London
Beyond Retro Dalston,"92-100 Stoke Newington Rd, London",51.5533702,-0.0746013,4.5,London
Mero Retro,"2 Bradbury St, London",51.5486303,-0.07583070000000001,5.0,London
Blue17 Vintage clothing,"162 Ground floor & basement, London",51.5512295,-0.1101328,4.7,London
Miniola Vintage,"65 Cross St, London",51.539392,-0.101881,0.0,London
Resurrection Boutique,"3, Archway Close, 3 Archway Rd, London",51.5657346,-0.134374,4.2,London
Laura von Behr Vintage,"Canonbury Yard, Building 1, 5A, 190 New N Rd, London",51.5377403,-0.0908213,5.0,London
London Fashion Vintage Fair,"73 Stoke Newington Church St, London",51.5620906,-0.07730469999999999,4.0,London
Beyond Retro Coal Drops,"Unit 79-81, Coal Drops Yard, London",51.5365259,-0.1259221,4.0,London
Svarelle,London,51.56526030000001,-0.1196879,0.0,London
The Grandad Company,"47, London",51.5378699,-0.1154254,5.0,London
PEZZE,"17 Amhurst Terrace, London",51.5547934,-0.06726979999999999,5.0,London
Alpha Vintage Store,"Hornsey Rd, London",51.55952120000001,-0.1144241,0.0,London
Magpie Vintage,"3 Camden Psge, London",51.5345635,-0.1043199,4.7,London
Forgotten Tales Vintage,"9a Cazenove Rd, London",51.5642296,-0.0723471,0.0,London
Reign Vintage,"166-168 Stoke Newington High St, London",51.5614461,-0.07358250000000001,4.3,London
Cats In Orbit,"54 Eade Rd, London",51.5740932,-0.09484800000000002,1.0,London
Retro Arena,"32 Mildmay Grove S, London",51.5485321,-0.0853227,5.0,London
Dreamtime,"14 Pierrepoint Arcade, London",51.5345842,-0.1037696,1.0,London
2 & 4 Vintage Furniture,"2-4 Southgate Rd, London",51.5377476,-0.0861846,4.4,London
Retro Hub N16,"Retro Hub N16, 2 Marton Rd, London",51.5617963,-0.08028210000000001,4.4,London
Blighty Militaria,"Flat C, 8-10 Ferntower Rd, London",51.5512446,-0.0866827,5.0,London
American Vintage,"Stable St, London",51.535973,-0.126182,3.4,London
"Camden Passage, Islington","1 Camden Psge, London",51.5346814,-0.1039732,4.3,London
SK.Vintage,"51 Fortess Rd, London",51.5539851,-0.1406663,4.5,London
Vivien of Holloway,"294 Holloway Rd, London",51.55451430000001,-0.1142869,4.4,London
Storm in a Teacup,"366 Kingsland Rd, London",51.5405416,-0.0762495,4.6,London
One Scoop Store,"101 Stoke Newington High St, London",51.55990329999999,-0.0741752,4.8,London
Seconda Mano - Clothing Agency,"114 Upper St, London",51.5381916,-0.1026253,4.0,London
Furuki Yo-Kimono Vintage,"London, Pod15 21-31 Shacklewell Lane, Dalston",51.5512149,-0.0733721,5.0,London
Leos boutique uk clothing popup stall,"Pierrepoint Arcade, Camden Psge, London",51.5355171,-0.1032303,5.0,London
House of Modern Vintage,"Wightman Rd, London",51.5793317,-0.1041108,4.9,London
Committee of Taste,"3a Evering Rd, London",51.5573029,-0.0737305,4.7,London
Corr Vintage Watches,"32 Walford Rd, London",51.5560002,-0.0763672,0.0,London
TTFN Vintage,"106-108 Denmark Hill, London",51.4709291,-0.0930882,5.0,London
Leona,"Brixton Village, Unit 5 Coldharbour Ln, London",51.4621557,-0.1114804,5.0,London
Blue Feather,"14 Melbourne Grove, London",51.4604353,-0.0799164,4.9,London
Little Sister,"Market Peckham, 133a Rye Ln, London",51.46982449999999,-0.0680959,5.0,London
Ansa Vintage,"95 Dartmouth Rd, London",51.4361212,-0.05506150000000001,5.0,London
Rye Not Retro,"62 Peckham Rye, London",51.4649691,-0.06665789999999999,4.3,London
Rejuvenate - Something for everyone,"41-42 Coldharbour Ln, London",51.4625934,-0.1116695,0.0,London
Bella West,"Granville Arcade, Unit 76 Coldharbour Ln, London",51.4624417,-0.1118706,3.7,London
the never not,"Arch 118, Unit 22 Station Passage, London",51.4747263,-0.05695419999999999,0.0,London
National Vintage League Ltd.,"Unit 2, Print Village, 58 Chadwick Rd, London",51.4683982,-0.0749778,5.0,London
Farr & Wyde,"Heron House, Dartmouth Rd, London",51.4383379,-0.054395,3.0,London
SixQD,"720b, 722b Old Kent Rd, London",51.4808333,-0.06047259999999999,0.0,London
Morbleu,"135 Dulwich Rd, London",51.4526729,-0.1027664,4.4,London
Windsor Antique Emporium,"405 Lordship Ln, London",51.448623,-0.0735941,5.0,London
Wild Horses,"95 Dartmouth Rd, London",51.43615150000001,-0.05503769999999999,5.0,London
Vintique London,"Unit 13 Station Passage, Queen's Rd, London",51.4755117,-0.05625339999999999,4.9,London
HOP Market - Studio,"60 Honor Oak Park, London",51.4495133,-0.0440055,4.3,London
TRAID Peckham,"14-16 Rye Ln, London",51.4726379,-0.0698983,4.2,London
Vintage Chairs,"25 Gubyon Ave, London",51.4554139,-0.102013,0.0,London
Frost,"144 Bellenden Rd, London",51.4681623,-0.0726333,5.0,London
TTFN Vintage,"106-108 Denmark Hill, London",51.4709291,-0.0930882,5.0,London
Pezze,"vinegar yard, St Thomas St, London",51.5026705,-0.0833746,5.0,London
Leona,"Brixton Village, Unit 5 Coldharbour Ln, London",51.4621557,-0.1114804,5.0,London
Blue Feather,"14 Melbourne Grove, London",51.4604353,-0.0799164,4.9,London
Little Sister,"Market Peckham, 133a Rye Ln, London",51.46982449999999,-0.0680959,5.0,London
Rye Not Retro,"62 Peckham Rye, London",51.4649691,-0.06665789999999999,4.3,London
Rejuvenate - Something for everyone,"41-42 Coldharbour Ln, London",51.4625934,-0.1116695,0.0,London
Bella West,"Granville Arcade, Unit 76 Coldharbour Ln, London",51.4624417,-0.1118706,3.7,London
the never not,"Arch 118, Unit 22 Station Passage, London",51.4747263,-0.05695419999999999,0.0,London
SixQD,"720b, 722b Old Kent Rd, London",51.4808333,-0.06047259999999999,0.0,London
National Vintage League Ltd.,"Unit 2, Print Village, 58 Chadwick Rd, London",51.4683982,-0.0749778,5.0,London
livewithfashion,"Alpha House, 100 Borough High St, London",51.5032218,-0.09196889999999999,0.0,London
Academy Vintage Repro,"229 Waterloo Rd, London",51.4998143,-0.1068619,0.0,London
Flea London Vintage & Makers Market,"Vinegar Yard, St Thomas St, London",51.50259699999999,-0.08344649999999999,4.0,London
Bermondsey Antique Market,"11 Bermondsey Sq, London",51.4972798,-0.0812958,3.9,London
TRAID Peckham,"14-16 Rye Ln, London",51.4726379,-0.0698983,4.2,London
Hunky Dory Vintage,"226 Brick Ln, London",51.52473939999999,-0.0715639,4.5,London
The Brick Lane Vintage Market,"85 Brick Ln, London",51.52079579999999,-0.0720977,4.3,London
House of Vintage Shoreditch,"4 Cheshire St, London",51.5234455,-0.07115189999999999,3.7,London
Brick Lane Vintage,"182 Brick Ln, London",51.52353850000001,-0.07130059999999999,4.2,London
Magpie Vintage,"F Block, Magpie Vintage Brick Lane Vintage Market, 85 Brick Ln, London",51.520781,-0.0719501,5.0,London
Rokit,"101 Brick Ln, London",51.5224997,-0.0716904,4.1,London
SO VINTAGE LONDON,"Old Spitalfields Market, 16 Horner Square, Spitalfields, London",51.5196411,-0.0756105,3.0,London
Levisons Vintage Clothing,"1 Cheshire St, Brick Ln, London",51.5235518,-0.0711432,4.3,London
ATIKA,"55-59 Hanbury St, London",51.52037370000001,-0.07094779999999999,4.3,London
The yard,"115 Brick Ln, London",51.5204843,-0.07386910000000001,0.0,London
SCOUT VINTAGE,"108 Commercial St, London",51.5200921,-0.0742704,4.5,London
Collectif,"71 Brushfield St, London",51.5192388,-0.07506170000000001,4.4,London
VOUT,"95 Columbia Rd, London",51.5299168,-0.0687478,5.0,London
Vintage Paradise,"220 Brick Ln, London",51.5245456,-0.0715203,4.3,London
Vintage Planet,"Unit 5/6, Vintage Planet, Brick Lane Vintage Market B4, 91 Brick Ln, London",51.5212201,-0.0719517,4.3,London
Pezze,"vinegar yard, St Thomas St, London",51.5026705,-0.0833746,5.0,London
Non Stop Vintage,"117c Brick Ln, London",51.5238695,-0.0715777,2.8,London
House of Vintage,"388 Old St, London",51.5270585,-0.0782834,0.0,London
Love Leather THE VINTAGE MARKET,"85 Brick Ln, London",51.5206389,-0.0719332,4.7,London
Pennies Vintage,"41A Amwell St, London",51.5292864,-0.1104796,4.7,London
Thrifted.com @ Brick Lane,"Vintage Market Shoreditch, Unit 30, 85 Brick Ln, London",51.520781,-0.0719501,5.0,London
Vintage Velvet Clothing,"85 Brick Ln, London",51.52086689999999,-0.0720324,0.0,London
London Vintage,"5 Cheshire St, London",51.5235908,-0.0710595,5.0,London
Cream Vintage London,"158 Brick Ln, London",51.52206469999999,-0.07159839999999999,5.0,London
Here After,"151 Brick Ln, London",51.5242606,-0.07167200000000001,3.6,London
Sunday market stock vintage,"106 Sclater St, London",51.5236031,-0.0734318,0.0,London
Pink Ink,"Vintage market, 85 Brick Ln, London",51.520781,-0.0719501,0.0,London
Hartex,"Unit 9, Gabriels Wharf, 56 Upper Ground, London",51.5079685,-0.1103793,4.7,London
Original Material,"6 Cheshire St, London",51.5234368,-0.0711019,5.0,London
Wizard Boo,"83a Roman Rd, London",51.5283907,-0.0500158,0.0,London
Future Vintage,"98 Columbia Rd, London",51.528632,-0.0704688,0.0,London
Serotonin Vintage London,"194 Brick Ln, London",51.5238457,-0.0713949,4.6,London
Archive Six,"5 Calvert Ave, London",51.5264278,-0.0761304,0.0,London
Vintage store,"148 Brick Ln, London",51.5213356,-0.0716821,0.0,London
Vintage Heaven,"82 Columbia Rd, London",51.5284208,-0.07090919999999999,4.5,London
Nordic Poetry,"141 Bethnal Grn Rd, London",51.5252734,-0.0710946,4.6,London
livewithfashion,"Alpha House, 100 Borough High St, London",51.5032218,-0.09196889999999999,0.0,London
Bread and Butter Collection,"72 Rivington St, London",51.5261211,-0.0792861,5.0,London
British Vintage,"City Rd, London",51.5291548,-0.09518019999999999,0.0,London
Academy Vintage Repro,"229 Waterloo Rd, London",51.4998143,-0.1068619,0.0,London
Kin Store London,"131 Brick Ln, London",51.52373,-0.0715621,3.7,London
WAI VI KI . LTD,"1 Owen St, London",51.5310287,-0.1049576,0.0,London
Flea London Vintage & Makers Market,"Vinegar Yard, St Thomas St, London",51.50259699999999,-0.08344649999999999,4.0,London
twos,"258 Hackney Rd, London",51.53086829999999,-0.06938029999999999,5.0,London
Bermondsey Antique Market,"11 Bermondsey Sq, London",51.4972798,-0.0812958,3.9,London
Vintage Vinyl Brick Lane,"85 Brick Ln, London",51.520781,-0.0719501,4.6,London
Klasik Vintage Eyewear,"Old Spitalfields Market, Brushfield St, London",51.5196657,-0.07544519999999999,5.0,London
Two Columbia Road,"2 Columbia Rd, London",51.5279872,-0.07601229999999999,4.6,London
The Vintage Furniture Flea,"5-15 Old Ford Road Greater, London",51.5296196,-0.05525870000000001,5.0,London
Hunky Dory Vintage,"226 Brick Ln, London",51.52473939999999,-0.0715639,4.5,London
Beyond Retro Dalston,"92-100 Stoke Newington Rd, London",51.5533702,-0.0746013,4.5,London
The Brick Lane Vintage Market,"85 Brick Ln, London",51.52079579999999,-0.0720977,4.3,London
Mero Retro,"2 Bradbury St, London",51.5486303,-0.07583070000000001,5.0,London
Blue17 Vintage clothing,"162 Ground floor & basement, London",51.5512295,-0.1101328,4.7,London
House of Vintage Shoreditch,"4 Cheshire St, London",51.5234455,-0.07115189999999999,3.7,London
Magpie Vintage,"3 Camden Psge, London",51.5345635,-0.1043199,4.7,London
Brick Lane Vintage,"182 Brick Ln, London",51.52353850000001,-0.07130059999999999,4.2,London
Magpie Vintage,"F Block, Magpie Vintage Brick Lane Vintage Market, 85 Brick Ln, London",51.520781,-0.0719501,5.0,London
Preloved by Melina,"36 Amhurst Rd, London",51.5481259,-0.05684939999999999,5.0,London
Rokit,"101 Brick Ln, London",51.5224997,-0.0716904,4.1,London
SO VINTAGE LONDON,"Old Spitalfields Market, 16 Horner Square, Spitalfields, London",51.5196411,-0.0756105,3.0,London
Somewhere in Hackney Vintage,"394 Mentmore Terrace, London",51.5411437,-0.0577,5.0,London
Gold Dust Vintage,"343 - 344 Beck Rd, London",51.5372201,-0.0581609,5.0,London
Levisons Vintage Clothing,"1 Cheshire St, Brick Ln, London",51.5235518,-0.0711432,4.3,London
ATIKA,"55-59 Hanbury St, London",51.52037370000001,-0.07094779999999999,4.3,London
The yard,"115 Brick Ln, London",51.5204843,-0.07386910000000001,0.0,London
VOUT,"95 Columbia Rd, London",51.5299168,-0.0687478,5.0,London
SCOUT VINTAGE,"108 Commercial St, London",51.5200921,-0.0742704,4.5,London
Collectif,"71 Brushfield St, London",51.5192388,-0.07506170000000001,4.4,London
Vintage Paradise,"220 Brick Ln, London",51.5245456,-0.0715203,4.3,London
Vintage Planet,"Unit 5/6, Vintage Planet, Brick Lane Vintage Market B4, 91 Brick Ln, London",51.5212201,-0.0719517,4.3,London
Retrouvé vintage,"23 Broadway Market, London",51.5362818,-0.0620898,5.0,London
Retrouvé vintage,"e8 1bg, 61 Wilton Way, London",51.5456744,-0.06157260000000001,4.5,London
Non Stop Vintage,"117c Brick Ln, London",51.5238695,-0.0715777,2.8,London
House of Vintage,"388 Old St, London",51.5270585,-0.0782834,0.0,London
Miniola Vintage,"65 Cross St, London",51.539392,-0.101881,0.0,London
Love Leather THE VINTAGE MARKET,"85 Brick Ln, London",51.5206389,-0.0719332,4.7,London
Frankie Lou Vintage,"12-20 Rosina St, London",51.54757499999999,-0.0455728,0.0,London
Pennies Vintage,"41A Amwell St, London",51.5292864,-0.1104796,4.7,London
Thrifted.com @ Brick Lane,"Vintage Market Shoreditch, Unit 30, 85 Brick Ln, London",51.520781,-0.0719501,5.0,London
WAI VI KI . LTD,"1 Owen St, London",51.5310287,-0.1049576,0.0,London
Vintage Velvet Clothing,"85 Brick Ln, London",51.52086689999999,-0.0720324,0.0,London
London Vintage,"5 Cheshire St, London",51.5235908,-0.0710595,5.0,London
Cream Vintage London,"158 Brick Ln, London",51.52206469999999,-0.07159839999999999,5.0,London
Dreamtime,"14 Pierrepoint Arcade, London",51.5345842,-0.1037696,1.0,London
Here After,"151 Brick Ln, London",51.5242606,-0.07167200000000001,3.6,London
Laura von Behr Vintage,"Canonbury Yard, Building 1, 5A, 190 New N Rd, London",51.5377403,-0.0908213,5.0,London
Sunday market stock vintage,"106 Sclater St, London",51.5236031,-0.0734318,0.0,London
Pink Ink,"Vintage market, 85 Brick Ln, London",51.520781,-0.0719501,0.0,London
Original Material,"6 Cheshire St, London",51.5234368,-0.0711019,5.0,London
PEZZE,"17 Amhurst Terrace, London",51.5547934,-0.06726979999999999,5.0,London
REFASHED I Vintage & Second-Hand Clothes,"13 Mentmore Terrace, London",51.54109889999999,-0.0573418,5.0,London
Rekindled,"212 Well St, London",51.5443061,-0.046649,5.0,London
Future Vintage,"98 Columbia Rd, London",51.528632,-0.0704688,0.0,London
Serotonin Vintage London,"194 Brick Ln, London",51.5238457,-0.0713949,4.6,London
House of Vintage Broadway Market,"2b Ada St, London",51.5358132,-0.06177329999999999,5.0,London
Vintage store,"148 Brick Ln, London",51.5213356,-0.0716821,0.0,London
Retold Vintage,"Stephen House, 1 Darnley Rd, London",51.5437886,-0.05438399999999999,5.0,London
twos,"258 Hackney Rd, London",51.53086829999999,-0.06938029999999999,5.0,London
The Pattern,"167 Mare St, London",51.5399792,-0.0560996,5.0,London
Paper Dress Vintage,"352a Mare St, London",51.547349,-0.05470179999999999,4.6,London
Vintage Heaven,"82 Columbia Rd, London",51.5284208,-0.07090919999999999,4.5,London
Nordic Poetry,"141 Bethnal Grn Rd, London",51.5252734,-0.0710946,4.6,London
Bread and Butter Collection,"72 Rivington St, London",51.5261211,-0.0792861,5.0,London
British Vintage,"City Rd, London",51.5291548,-0.09518019999999999,0.0,London
The Square Circle,"499-505 Hackney Rd, London",51.5325133,-0.0583845,0.0,London
2 & 4 Vintage Furniture,"2-4 Southgate Rd, London",51.5377476,-0.0861846,4.4,London
Kin Store London,"131 Brick Ln, London",51.52373,-0.0715621,3.7,London
Blighty Militaria,"Flat C, 8-10 Ferntower Rd, London",51.5512446,-0.0866827,5.0,London
Beyond Retro Dalston,"92-100 Stoke Newington Rd, London",51.5533702,-0.0746013,4.5,London
Mero Retro,"2 Bradbury St, London",51.5486303,-0.07583070000000001,5.0,London
Blue17 Vintage clothing,"162 Ground floor & basement, London",51.5512295,-0.1101328,4.7,London
Preloved by Melina,"36 Amhurst Rd, London",51.5481259,-0.05684939999999999,5.0,London
Somewhere in Hackney Vintage,"394 Mentmore Terrace, London",51.5411437,-0.0577,5.0,London
Gold Dust Vintage,"343 - 344 Beck Rd, London",51.5372201,-0.0581609,5.0,London
Retrouvé vintage,"23 Broadway Market, London",51.5362818,-0.0620898,5.0,London
Miniola Vintage,"65 Cross St, London",51.539392,-0.101881,0.0,London
Retrouvé vintage,"e8 1bg, 61 Wilton Way, London",51.5456744,-0.06157260000000001,4.5,London
Frankie Lou Vintage,"12-20 Rosina St, London",51.54757499999999,-0.0455728,0.0,London
Laura von Behr Vintage,"Canonbury Yard, Building 1, 5A, 190 New N Rd, London",51.5377403,-0.0908213,5.0,London
London Fashion Vintage Fair,"73 Stoke Newington Church St, London",51.5620906,-0.07730469999999999,4.0,London
PEZZE,"17 Amhurst Terrace, London",51.5547934,-0.06726979999999999,5.0,London
REFASHED I Vintage & Second-Hand Clothes,"13 Mentmore Terrace, London",51.54109889999999,-0.0573418,5.0,London
Rekindled,"212 Well St, London",51.5443061,-0.046649,5.0,London
House of Vintage Broadway Market,"2b Ada St, London",51.5358132,-0.06177329999999999,5.0,London
Reign Vintage,"166-168 Stoke Newington High St, London",51.5614461,-0.07358250000000001,4.3,London
Magpie Vintage,"3 Camden Psge, London",51.5345635,-0.1043199,4.7,London
Retold Vintage,"Stephen House, 1 Darnley Rd, London",51.5437886,-0.05438399999999999,5.0,London
Forgotten Tales Vintage,"9a Cazenove Rd, London",51.5642296,-0.0723471,0.0,London
The Pattern,"167 Mare St, London",51.5399792,-0.0560996,5.0,London
Cats In Orbit,"54 Eade Rd, London",51.5740932,-0.09484800000000002,1.0,London
Paper Dress Vintage,"352a Mare St, London",51.547349,-0.05470179999999999,4.6,London
Retro Arena,"32 Mildmay Grove S, London",51.5485321,-0.0853227,5.0,London
Alpha Vintage Store,"Hornsey Rd, London",51.55952120000001,-0.1144241,0.0,London
Dreamtime,"14 Pierrepoint Arcade, London",51.5345842,-0.1037696,1.0,London
2 & 4 Vintage Furniture,"2-4 Southgate Rd, London",51.5377476,-0.0861846,4.4,London
Retro Hub N16,"Retro Hub N16, 2 Marton Rd, London",51.5617963,-0.08028210000000001,4.4,London
Blighty Militaria,"Flat C, 8-10 Ferntower Rd, London",51.5512446,-0.0866827,5.0,London
The Grandad Company,"47, London",51.5378699,-0.1154254,5.0,London
"Camden Passage, Islington","1 Camden Psge, London",51.5346814,-0.1039732,4.3,London
Proper Old Ltd,"173 Dalston Ln, London",51.5493156,-0.06074719999999999,4.5,London
Ooh La La,"147 Holloway Rd, London",51.5493584,-0.1083678,5.0,London
Storm in a Teacup,"366 Kingsland Rd, London",51.5405416,-0.0762495,4.6,London
One Scoop Store,"101 Stoke Newington High St, London",51.55990329999999,-0.0741752,4.8,London
Seconda Mano - Clothing Agency,"114 Upper St, London",51.5381916,-0.1026253,4.0,London
Vivien of Holloway,"294 Holloway Rd, London",51.55451430000001,-0.1142869,4.4,London
Furuki Yo-Kimono Vintage,"London, Pod15 21-31 Shacklewell Lane, Dalston",51.5512149,-0.0733721,5.0,London
Leos boutique uk clothing popup stall,"Pierrepoint Arcade, Camden Psge, London",51.5355171,-0.1032303,5.0,London
House of Modern Vintage,"Wightman Rd, London",51.5793317,-0.1041108,4.9,London
Committee of Taste,"3a Evering Rd, London",51.5573029,-0.0737305,4.7,London
Corr Vintage Watches,"32 Walford Rd, London",51.5560002,-0.0763672,0.0,London
Sjcartier Ltd,"L1335, Capital House, 61 Amhurst Rd, London",51.5490181,-0.0593875,5.0,London
Past Caring London,"54 Essex Rd, London",51.5377097,-0.0997412,4.6,London
After Noah,"121-122 Upper St, London",51.5386128,-0.1024292,4.6,London
BijouxB Vintage Jewellery - Islington,"1-6 Colinsdale Estate, Camden Walk, London",51.5354176,-0.1031492,3.0,London
H. J. Aris Antique and Cafe Bistro,"11 Dalston Ln, London",51.5463179,-0.0744648,4.4,London
D & A Binder - Antique Shop Cabinets & Bespoke Shopfittings for Hire or Purchase,"101 Holloway Rd, London",51.548067,-0.1066036,4.9,London
Traid Dalston,"106-108 Kingsland High St, London",51.5491916,-0.0751442,4.3,London
Blue Feather,"14 Melbourne Grove, London",51.4604353,-0.0799164,4.9,London
Little Sister,"Market Peckham, 133a Rye Ln, London",51.46982449999999,-0.0680959,5.0,London
Ansa Vintage,"95 Dartmouth Rd, London",51.4361212,-0.05506150000000001,5.0,London
Rye Not Retro,"62 Peckham Rye, London",51.4649691,-0.06665789999999999,4.3,London
the never not,"Arch 118, Unit 22 Station Passage, London",51.4747263,-0.05695419999999999,0.0,London
National Vintage League Ltd.,"Unit 2, Print Village, 58 Chadwick Rd, London",51.4683982,-0.0749778,5.0,London
Rag N Bone,"140 Deptford High St, London",51.4790854,-0.025972,3.8,London
Farr & Wyde,"Heron House, Dartmouth Rd, London",51.4383379,-0.054395,3.0,London
SixQD,"720b, 722b Old Kent Rd, London",51.4808333,-0.06047259999999999,0.0,London
Antiques,"Tanner's, 117 Tanner's Hill, London",51.4714515,-0.0294043,5.0,London
Hanks & Wells,"Bromley Rd, London",51.4354895,-0.0197382,0.0,London
Windsor Antique Emporium,"405 Lordship Ln, London",51.448623,-0.0735941,5.0,London
Wild Horses,"95 Dartmouth Rd, London",51.43615150000001,-0.05503769999999999,5.0,London
Nude Lagoon,"205 Deptford High St, London",51.4807141,-0.0264337,4.7,London
Vintique London,"Unit 13 Station Passage, Queen's Rd, London",51.4755117,-0.05625339999999999,4.9,London
HOP Market - Studio,"60 Honor Oak Park, London",51.4495133,-0.0440055,4.3,London
TRAID Peckham,"14-16 Rye Ln, London",51.4726379,-0.0698983,4.2,London
Frost,"144 Bellenden Rd, London",51.4681623,-0.0726333,5.0,London
Black-Heath Antique,"308-310, Lewisham High St, London",51.4570677,-0.0141999,3.8,London
Pezze,"vinegar yard, St Thomas St, London",51.5026705,-0.0833746,5.0,London
Blue Feather,"14 Melbourne Grove, London",51.4604353,-0.0799164,4.9,London
Little Sister,"Market Peckham, 133a Rye Ln, London",51.46982449999999,-0.0680959,5.0,London
Rye Not Retro,"62 Peckham Rye, London",51.4649691,-0.06665789999999999,4.3,London
the never not,"Arch 118, Unit 22 Station Passage, London",51.4747263,-0.05695419999999999,0.0,London
SixQD,"720b, 722b Old Kent Rd, London",51.4808333,-0.06047259999999999,0.0,London
National Vintage League Ltd.,"Unit 2, Print Village, 58 Chadwick Rd, London",51.4683982,-0.0749778,5.0,London
Rag N Bone,"140 Deptford High St, London",51.4790854,-0.025972,3.8,London
Nude Lagoon,"205 Deptford High St, London",51.4807141,-0.0264337,4.7,London
Flea London Vintage & Makers Market,"Vinegar Yard, St Thomas St, London",51.50259699999999,-0.08344649999999999,4.0,London
Antiques,"Tanner's, 117 Tanner's Hill, London",51.4714515,-0.0294043,5.0,London
Bermondsey Antique Market,"11 Bermondsey Sq, London",51.4972798,-0.0812958,3.9,London
The Rabbithole,"Vinegar Yard, 72-82 St Thomas St, London",51.5028073,-0.0838078,5.0,London
livewithfashion,"Alpha House, 100 Borough High St, London",51.5032218,-0.09196889999999999,0.0,London
Vintique London,"Unit 13 Station Passage, Queen's Rd, London",51.4755117,-0.05625339999999999,4.9,London
TRAID Peckham,"14-16 Rye Ln, London",51.4726379,-0.0698983,4.2,London
Hunky Dory Vintage,"226 Brick Ln, London",51.52473939999999,-0.0715639,4.5,London
The Brick Lane Vintage Market,"85 Brick Ln, London",51.52079579999999,-0.0720977,4.3,London
House of Vintage Shoreditch,"4 Cheshire St, London",51.5234455,-0.07115189999999999,3.7,London
Brick Lane Vintage,"182 Brick Ln, London",51.52353850000001,-0.07130059999999999,4.2,London
Magpie Vintage,"F Block, Magpie Vintage Brick Lane Vintage Market, 85 Brick Ln, London",51.520781,-0.0719501,5.0,London
Rokit,"101 Brick Ln, London",51.5224997,-0.0716904,4.1,London
Mad Vintage Mile End,"Ark 452 huddart street , AKA, Ackroyd Dr, London",51.51979009999999,-0.0283664,4.6,London
SO VINTAGE LONDON,"Old Spitalfields Market, 16 Horner Square, Spitalfields, London",51.5196411,-0.0756105,3.0,London
Levisons Vintage Clothing,"1 Cheshire St, Brick Ln, London",51.5235518,-0.0711432,4.3,London
ATIKA,"55-59 Hanbury St, London",51.52037370000001,-0.07094779999999999,4.3,London
The yard,"115 Brick Ln, London",51.5204843,-0.07386910000000001,0.0,London
SCOUT VINTAGE,"108 Commercial St, London",51.5200921,-0.0742704,4.5,London
Collectif,"71 Brushfield St, London",51.5192388,-0.07506170000000001,4.4,London
VOUT,"95 Columbia Rd, London",51.5299168,-0.0687478,5.0,London
Vintage Paradise,"220 Brick Ln, London",51.5245456,-0.0715203,4.3,London
Vintage Planet,"Unit 5/6, Vintage Planet, Brick Lane Vintage Market B4, 91 Brick Ln, London",51.5212201,-0.0719517,4.3,London
Pezze,"vinegar yard, St Thomas St, London",51.5026705,-0.0833746,5.0,London
Non Stop Vintage,"117c Brick Ln, London",51.5238695,-0.0715777,2.8,London
House of Vintage,"388 Old St, London",51.5270585,-0.0782834,0.0,London
Love Leather THE VINTAGE MARKET,"85 Brick Ln, London",51.5206389,-0.0719332,4.7,London
Thrifted.com @ Brick Lane,"Vintage Market Shoreditch, Unit 30, 85 Brick Ln, London",51.520781,-0.0719501,5.0,London
Vintage Velvet Clothing,"85 Brick Ln, London",51.52086689999999,-0.0720324,0.0,London
London Vintage,"5 Cheshire St, London",51.5235908,-0.0710595,5.0,London
Cream Vintage London,"158 Brick Ln, London",51.52206469999999,-0.07159839999999999,5.0,London
Here After,"151 Brick Ln, London",51.5242606,-0.07167200000000001,3.6,London
Sunday market stock vintage,"106 Sclater St, London",51.5236031,-0.0734318,0.0,London
Pink Ink,"Vintage market, 85 Brick Ln, London",51.520781,-0.0719501,0.0,London
Original Material,"6 Cheshire St, London",51.5234368,-0.0711019,5.0,London
Wizard Boo,"83a Roman Rd, London",51.5283907,-0.0500158,0.0,London
Future Vintage,"98 Columbia Rd, London",51.528632,-0.0704688,0.0,London
Serotonin Vintage London,"194 Brick Ln, London",51.5238457,-0.0713949,4.6,London
Archive Six,"5 Calvert Ave, London",51.5264278,-0.0761304,0.0,London
Vintage store,"148 Brick Ln, London",51.5213356,-0.0716821,0.0,London
Vintage Heaven,"82 Columbia Rd, London",51.5284208,-0.07090919999999999,4.5,London
Nordic Poetry,"141 Bethnal Grn Rd, London",51.5252734,-0.0710946,4.6,London
Bread and Butter Collection,"72 Rivington St, London",51.5261211,-0.0792861,5.0,London
Kin Store London,"131 Brick Ln, London",51.52373,-0.0715621,3.7,London
Flea London Vintage & Makers Market,"Vinegar Yard, St Thomas St, London",51.50259699999999,-0.08344649999999999,4.0,London
twos,"258 Hackney Rd, London",51.53086829999999,-0.06938029999999999,5.0,London
Bermondsey Antique Market,"11 Bermondsey Sq, London",51.4972798,-0.0812958,3.9,London
Vintage Vinyl Brick Lane,"85 Brick Ln, London",51.520781,-0.0719501,4.6,London
Klasik Vintage Eyewear,"Old Spitalfields Market, Brushfield St, London",51.5196657,-0.07544519999999999,5.0,London
Two Columbia Road,"2 Columbia Rd, London",51.5279872,-0.07601229999999999,4.6,London
The Rabbithole,"Vinegar Yard, 72-82 St Thomas St, London",51.5028073,-0.0838078,5.0,London
London Antique And Collectable,"90 Paul St, London",51.525636,-0.08368660000000001,4.9,London
livewithfashion,"Alpha House, 100 Borough High St, London",51.5032218,-0.09196889999999999,0.0,London
The Vintage Furniture Flea,"5-15 Old Ford Road Greater, London",51.5296196,-0.05525870000000001,5.0,London
Beyond Retro Cheshire Street,"110-112, Cheshire St, London",51.5238167,-0.0669396,4.7,London
Klasik Bow,"443A Roman Rd, London",51.5319097,-0.0354282,4.8,London
Gina's Closet London,"371 Roman Rd, London",51.53133630000001,-0.0383543,3.6,London
WatchWorks Vintage Watches & Repair,"Old Spitalfields Market, London",51.5194561,-0.0747737,0.0,London
VINTAGE TOP WATCH LTD,"152/43, 9 Aldgate High St, London",51.5141413,-0.0760052,0.0,London
Archiva Luxury,"Archiva, 178A Brick Ln, London",51.52304119999999,-0.0713688,5.0,London
Mason & Painter,"67 Columbia Rd, London",51.5293921,-0.0694417,4.8,London
Hunky Dory Vintage,"226 Brick Ln, London",51.52473939999999,-0.0715639,4.5,London
Beyond Retro Dalston,"92-100 Stoke Newington Rd, London",51.5533702,-0.0746013,4.5,London
The Brick Lane Vintage Market,"85 Brick Ln, London",51.52079579999999,-0.0720977,4.3,London
Mero Retro,"2 Bradbury St, London",51.5486303,-0.07583070000000001,5.0,London
House of Vintage Shoreditch,"4 Cheshire St, London",51.5234455,-0.07115189999999999,3.7,London
Brick Lane Vintage,"182 Brick Ln, London",51.52353850000001,-0.07130059999999999,4.2,London
Magpie Vintage,"F Block, Magpie Vintage Brick Lane Vintage Market, 85 Brick Ln, London",51.520781,-0.0719501,5.0,London
Preloved by Melina,"36 Amhurst Rd, London",51.5481259,-0.05684939999999999,5.0,London
Rokit,"101 Brick Ln, London",51.5224997,-0.0716904,4.1,London
Mad Vintage Mile End,"Ark 452 huddart street , AKA, Ackroyd Dr, London",51.51979009999999,-0.0283664,4.6,London
SO VINTAGE LONDON,"Old Spitalfields Market, 16 Horner Square, Spitalfields, London",51.5196411,-0.0756105,3.0,London
Somewhere in Hackney Vintage,"394 Mentmore Terrace, London",51.5411437,-0.0577,5.0,London
Gold Dust Vintage,"343 - 344 Beck Rd, London",51.5372201,-0.0581609,5.0,London
Levisons Vintage Clothing,"1 Cheshire St, Brick Ln, London",51.5235518,-0.0711432,4.3,London
ATIKA,"55-59 Hanbury St, London",51.52037370000001,-0.07094779999999999,4.3,London
The yard,"115 Brick Ln, London",51.5204843,-0.07386910000000001,0.0,London
VOUT,"95 Columbia Rd, London",51.5299168,-0.0687478,5.0,London
SCOUT VINTAGE,"108 Commercial St, London",51.5200921,-0.0742704,4.5,London
Collectif,"71 Brushfield St, London",51.5192388,-0.07506170000000001,4.4,London
Vintage Paradise,"220 Brick Ln, London",51.5245456,-0.0715203,4.3,London
Vintage Planet,"Unit 5/6, Vintage Planet, Brick Lane Vintage Market B4, 91 Brick Ln, London",51.5212201,-0.0719517,4.3,London
Retrouvé vintage,"23 Broadway Market, London",51.5362818,-0.0620898,5.0,London
East End Vintage Clothing,"11B Chapman Rd, London",51.5431201,-0.0277344,3.6,London
Getup Yesterday,"Unit 4, echo building, easy, E Bay Ln, London",51.5446935,-0.0213241,5.0,London
Retrouvé vintage,"e8 1bg, 61 Wilton Way, London",51.5456744,-0.06157260000000001,4.5,London
Non Stop Vintage,"117c Brick Ln, London",51.5238695,-0.0715777,2.8,London
Vintage Threads,"Unit 3 Trafalgar Mews, London",51.5464767,-0.0302903,4.6,London
House of Vintage,"388 Old St, London",51.5270585,-0.0782834,0.0,London
Love Leather THE VINTAGE MARKET,"85 Brick Ln, London",51.5206389,-0.0719332,4.7,London
Frankie Lou Vintage,"12-20 Rosina St, London",51.54757499999999,-0.0455728,0.0,London
Thrifted.com @ Brick Lane,"Vintage Market Shoreditch, Unit 30, 85 Brick Ln, London",51.520781,-0.0719501,5.0,London
Vintage Velvet Clothing,"85 Brick Ln, London",51.52086689999999,-0.0720324,0.0,London
London Vintage,"5 Cheshire St, London",51.5235908,-0.0710595,5.0,London
Cream Vintage London,"158 Brick Ln, London",51.52206469999999,-0.07159839999999999,5.0,London
Here After,"151 Brick Ln, London",51.5242606,-0.07167200000000001,3.6,London
Sunday market stock vintage,"106 Sclater St, London",51.5236031,-0.0734318,0.0,London
Pink Ink,"Vintage market, 85 Brick Ln, London",51.520781,-0.0719501,0.0,London
Original Material,"6 Cheshire St, London",51.5234368,-0.0711019,5.0,London
Wizard Boo,"83a Roman Rd, London",51.5283907,-0.0500158,0.0,London
PEZZE,"17 Amhurst Terrace, London",51.5547934,-0.06726979999999999,5.0,London
REFASHED I Vintage & Second-Hand Clothes,"13 Mentmore Terrace, London",51.54109889999999,-0.0573418,5.0,London
Rekindled,"212 Well St, London",51.5443061,-0.046649,5.0,London
Future Vintage,"98 Columbia Rd, London",51.528632,-0.0704688,0.0,London
Serotonin Vintage London,"194 Brick Ln, London",51.5238457,-0.0713949,4.6,London
House of Vintage Broadway Market,"2b Ada St, London",51.5358132,-0.06177329999999999,5.0,London
Vintage store,"148 Brick Ln, London",51.5213356,-0.0716821,0.0,London
Retold Vintage,"Stephen House, 1 Darnley Rd, London",51.5437886,-0.05438399999999999,5.0,London
twos,"258 Hackney Rd, London",51.53086829999999,-0.06938029999999999,5.0,London
The Pattern,"167 Mare St, London",51.5399792,-0.0560996,5.0,London
Paper Dress Vintage,"352a Mare St, London",51.547349,-0.05470179999999999,4.6,London
Vintage Heaven,"82 Columbia Rd, London",51.5284208,-0.07090919999999999,4.5,London
Nordic Poetry,"141 Bethnal Grn Rd, London",51.5252734,-0.0710946,4.6,London
Bread and Butter Collection,"72 Rivington St, London",51.5261211,-0.0792861,5.0,London
FLAOS Antiques & Vintage,"117 Wallis Rd, London",51.54470269999999,-0.0235367,5.0,London
Beyond Retro Cheshire Street,"110-112, Cheshire St, London",51.5238167,-0.0669396,4.7,London
Klasik Bow,"443A Roman Rd, London",51.5319097,-0.0354282,4.8,London
The Square Circle,"499-505 Hackney Rd, London",51.5325133,-0.0583845,0.0,London
2 & 4 Vintage Furniture,"2-4 Southgate Rd, London",51.5377476,-0.0861846,4.4,London
Kin Store London,"131 Brick Ln, London",51.52373,-0.0715621,3.7,London
Blighty Militaria,"Flat C, 8-10 Ferntower Rd, London",51.5512446,-0.0866827,5.0,London
Beyond Retro Dalston,"92-100 Stoke Newington Rd, London",51.5533702,-0.0746013,4.5,London
Mero Retro,"2 Bradbury St, London",51.5486303,-0.07583070000000001,5.0,London
Preloved by Melina,"36 Amhurst Rd, London",51.5481259,-0.05684939999999999,5.0,London
Somewhere in Hackney Vintage,"394 Mentmore Terrace, London",51.5411437,-0.0577,5.0,London
Gold Dust Vintage,"343 - 344 Beck Rd, London",51.5372201,-0.0581609,5.0,London
Retrouvé vintage,"23 Broadway Market, London",51.5362818,-0.0620898,5.0,London
East End Vintage Clothing,"11B Chapman Rd, London",51.5431201,-0.0277344,3.6,London
Getup Yesterday,"Unit 4, echo building, easy, E Bay Ln, London",51.5446935,-0.0213241,5.0,London
Vintage Threads,"Unit 3 Trafalgar Mews, London",51.5464767,-0.0302903,4.6,London
Retrouvé vintage,"e8 1bg, 61 Wilton Way, London",51.5456744,-0.06157260000000001,4.5,London
Frankie Lou Vintage,"12-20 Rosina St, London",51.54757499999999,-0.0455728,0.0,London
London Fashion Vintage Fair,"73 Stoke Newington Church St, London",51.5620906,-0.07730469999999999,4.0,London
PEZZE,"17 Amhurst Terrace, London",51.5547934,-0.06726979999999999,5.0,London
REFASHED I Vintage & Second-Hand Clothes,"13 Mentmore Terrace, London",51.54109889999999,-0.0573418,5.0,London
Rekindled,"212 Well St, London",51.5443061,-0.046649,5.0,London
House of Vintage Broadway Market,"2b Ada St, London",51.5358132,-0.06177329999999999,5.0,London
Reign Vintage,"166-168 Stoke Newington High St, London",51.5614461,-0.07358250000000001,4.3,London
Retold Vintage,"Stephen House, 1 Darnley Rd, London",51.5437886,-0.05438399999999999,5.0,London
Forgotten Tales Vintage,"9a Cazenove Rd, London",51.5642296,-0.0723471,0.0,London
The Pattern,"167 Mare St, London",51.5399792,-0.0560996,5.0,London
Paper Dress Vintage,"352a Mare St, London",51.547349,-0.05470179999999999,4.6,London
Retro Arena,"32 Mildmay Grove S, London",51.5485321,-0.0853227,5.0,London
Go East Vintage,"258 Church Rd, London",51.5696051,-0.0242234,3.0,London
FLAOS Antiques & Vintage,"117 Wallis Rd, London",51.54470269999999,-0.0235367,5.0,London
2 & 4 Vintage Furniture,"2-4 Southgate Rd, London",51.5377476,-0.0861846,4.4,London
Retro Hub N16,"Retro Hub N16, 2 Marton Rd, London",51.5617963,-0.08028210000000001,4.4,London
Blighty Militaria,"Flat C, 8-10 Ferntower Rd, London",51.5512446,-0.0866827,5.0,London
Laura von Behr Vintage,"Canonbury Yard, Building 1, 5A, 190 New N Rd, London",51.5377403,-0.0908213,5.0,London
Proper Old Ltd,"173 Dalston Ln, London",51.5493156,-0.06074719999999999,4.5,London
Storm in a Teacup,"366 Kingsland Rd, London",51.5405416,-0.0762495,4.6,London
One Scoop Store,"101 Stoke Newington High St, London",51.55990329999999,-0.0741752,4.8,London
Furuki Yo-Kimono Vintage,"London, Pod15 21-31 Shacklewell Lane, Dalston",51.5512149,-0.0733721,5.0,London
Committee of Taste,"3a Evering Rd, London",51.5573029,-0.0737305,4.7,London
Corr Vintage Watches,"32 Walford Rd, London",51.5560002,-0.0763672,0.0,London
Sjcartier Ltd,"L1335, Capital House, 61 Amhurst Rd, London",51.5490181,-0.0593875,5.0,London
Suits Ya,"Peanut Factory, 56 Dace Rd, London",51.5377111,-0.0231008,5.0,London
H. J. Aris Antique and Cafe Bistro,"11 Dalston Ln, London",51.5463179,-0.0744648,4.4,London
Traid Dalston,"106-108 Kingsland High St, London",51.5491916,-0.0751442,4.3,London
British Heart Foundation,"184 Balham High Rd, London",51.44399670000001,-0.1525531,4.0,London
Embrace S W Charity Boutique,"29 Queenstown Rd, London",51.46734619999999,-0.1507597,4.1,London
Fara Charity Shop - Battersea,"254 Battersea Park Rd, London",51.4721114,-0.1661202,4.6,London
Oxfam,"4 Replingham Rd, London",51.4446786,-0.2061251,4.0,London
Traid,"28 St John's Rd, London",51.4629956,-0.1679301,4.1,London
Wandsworth Oasis,"61 Balham High Rd, London",51.4461518,-0.1495703,4.6,London
Oxfam,"717-719 Fulham Rd., London",51.4768947,-0.2021345,4.2,London
"British Red Cross shop, Wandsworth","11-12 Bramlands Cl, London",51.4661645,-0.1697389,3.8,London
Mary's Living & Giving Shop for Save the Children - Wandsworth Town,"531 Old York Rd, London",51.45991600000001,-0.1888067,4.7,London
Fara Charity Shop - Earlsfield,"551 Garratt Lane, London",51.4409499,-0.1868158,4.6,London
Fara Charity Shop - Balham,"27 Bedford Hill, London",51.444457,-0.1505599,4.3,London
Fara Charity Shop - New Kings Road,"297 New Kings Rd, London",51.4721293,-0.2030166,5.0,London
Oxfam,"535 Garratt Lane, London",51.4413841,-0.1871029,4.3,London
British Heart Foundation,"64 St John's Rd, London",51.4619599,-0.1677556,3.6,London
Fara Charity Shop - Southfields,"261 Wimbledon Park Rd, London",51.4443141,-0.2069059,4.8,London
RSPCA Charity Shop - Wandsworth,"141, 143 Wandsworth High St, London",51.4572587,-0.1958099,4.7,London
Fara Charity Shop - Clapham,"70 Chatham Rd, London",51.45489240000001,-0.164332,4.2,London
Cancer Research UK,"83 St John's Rd, London",51.4611573,-0.1670608,3.8,London
Cancer Research UK,"168 Balham High Rd, London",51.4445066,-0.1521127,3.2,London
Royal Trinity Hospice - Clapham Junction Shop,"73 St John's Rd, London",51.4613923,-0.1671984,3.3,London
Boutique by Shelter,"49 Northcote Rd, London",51.4594101,-0.1662286,4.8,London
Fara,"261 Wimbledon Park Rd, London",51.4443042,-0.206877,3.7,London
Royal Trinity Hospice - Balham Shop,"107 Balham High Rd, London",51.4453462,-0.1508785,4.3,London
Royal Trinity Hospice - Fulham Shop,"785 Fulham Rd., London",51.4762365,-0.2045147,4.3,London
Royal Trinity Hospice,"40 Northcote Rd, London",51.4594217,-0.1665687,4.1,London
Paws Charity Shop,"67 Trinity Rd, London",51.4369442,-0.1616661,4.1,London
"Earlsfield Charity Shop - RSPCA Wimbledon, Wandsworth & Sutton Branch","549 Garratt Lane, London",51.4410357,-0.1868487,3.8,London
Wandsworth Oasis: 308 Battersea Park Rd,"308-310 Battersea Park Rd, London",51.4714265,-0.1686376,4.4,London
Fara Kids Charity Shop - Southfields,"273 Wimbledon Park Rd, London",51.4440149,-0.2071944,4.0,London
Age UK Wandsworth,"549 Old York Rd, London",51.45956229999999,-0.1895844,4.6,London
Oxfam Bookshop,"166 Balham High Rd, London",51.4445634,-0.1520632,4.5,London
Fara Kids Charity Shop - Clapham,"144 Northcote Rd, London",51.455441,-0.1648882,4.4,London
British Heart Foundation Furniture & Electrical,"153-155 Wandsworth High St, London",51.4571599,-0.1961151,3.5,London
Wandsworth Oasis: Garratt Lane,"138 Garratt Lane, London",51.4499754,-0.1899471,4.2,London
Wandsworth Oasis: 553 Battersea Park Rd,"553 Battersea Park Rd, London",51.4714943,-0.1677502,5.0,London
Fara Kids Charity Shop - Earlsfield Kids,"589 Garratt Lane, London",51.4393924,-0.1866607,4.4,London
Fara Charity Shop - Fulham,"674 Fulham Rd., London",51.4753589,-0.2062914,4.5,London
Fara Kids Charity Shop - Balham,"15 Hildreth St, London",51.4445172,-0.1509644,4.4,London
Fara Kids Charity Shop - Fulham,"614 Fulham Rd., London",51.4768413,-0.2034187,4.4,London
Wandsworth Oasis: Tooting Bec,"40-42 Trinity Rd, London",51.43656319999999,-0.1609548,4.2,London
Wandsworth Oasis,"45 Old Town, London",51.4640518,-0.1409584,4.6,London
British Heart Foundation,"65 High Street, London",51.4639299,-0.2153382,2.7,London
Boutique by Shelter,"31 The Pavement, London",51.463092,-0.1406652,4.9,London
Charity Clothes Donations - TRAID,"203A St John's Hill, London",51.4599542,-0.1786837,0.0,London
Oxfam,"149 Putney High St, London",51.4617848,-0.2165098,3.1,London
Cancer Research UK,"127 Putney High St, London",51.4622567,-0.2162834,2.8,London
