name,address,latitude,longitude,rating,borough,shop_id,Unnamed: 0,Code,Area,Value,Code_earnings,Area_earnings,Pay_2021
Vintage80scasuals,"Unit 63, 105 Culvert Rd, London",51.47090439999999,-0.1566805,0.0,Wandsworth,0,3856.0,E09000032,Wandsworth,"640,000",00BJ,Wandsworth,746.7
Accessories of Old,"Next to Safestore, Arch 10 Munster Rd, London",51.4725788,-0.2038588,0.0,Hammersmith and Fulham,1,3837.0,E09000013,Hammersmith and Fulham,"740,000",00AN,Hammersmith and Fulham,714.5
Eclectica (Clapham),"803 Wandsworth Rd, London",51.4665809,-0.1484604,4.9,Lambeth,2,3846.0,E09000022,Lambeth,"510,000",00AY,Lambeth,673.6
BajaboutiqueGB,"37 Elbe St, London",51.4728777,-0.1850758,0.0,Hammersmith and Fulham,3,3837.0,E09000013,Hammersmith and Fulham,"740,000",00AN,Hammersmith and Fulham,714.5
INSIGHT Fulham Dress Agency,"201 Munster Rd, London",51.4794466,-0.2118834,5.0,Hammersmith and Fulham,4,3837.0,E09000013,Hammersmith and Fulham,"740,000",00AN,Hammersmith and Fulham,714.5
NewVintage.co.uk,"256 Battersea Park Rd, London",51.4720756,-0.1661966,4.1,Wandsworth,5,3856.0,E09000032,Wandsworth,"640,000",00BJ,Wandsworth,746.7
Rewind Vintage Affairs,London,51.47750680000001,-0.1831423,5.0,Hammersmith and Fulham,6,3837.0,E09000013,Hammersmith and Fulham,"740,000",00AN,Hammersmith and Fulham,714.5
R13fitness,"Flat 74, Barton House, Wandsworth Bridge Rd., London",51.4682394,-0.1898545,0.0,Hammersmith and Fulham,7,3837.0,E09000013,Hammersmith and Fulham,"740,000",00AN,Hammersmith and Fulham,714.5
Deuxieme,"299 New Kings Rd, London",51.4721182,-0.203096,3.8,Hammersmith and Fulham,8,3837.0,E09000013,Hammersmith and Fulham,"740,000",00AN,Hammersmith and Fulham,714.5
Northcote Road Antiques Market,"155a Northcote Rd, London",51.455341,-0.1645277,4.4,Wandsworth,9,3856.0,E09000032,Wandsworth,"640,000",00BJ,Wandsworth,746.7
43 Decorative Antiques,"43 Replingham Rd, London",51.44506939999999,-0.2043641,4.5,Wandsworth,10,3856.0,E09000032,Wandsworth,"640,000",00BJ,Wandsworth,746.7
Guinevere Antiques Ltd,"574-580, King's Rd, London",51.47900199999999,-0.188218,4.8,Hammersmith and Fulham,11,3837.0,E09000013,Hammersmith and Fulham,"740,000",00AN,Hammersmith and Fulham,714.5
Eccles Road Antiques,"60 Eccles Rd, London",51.46180829999999,-0.1634526,4.9,Wandsworth,12,3856.0,E09000032,Wandsworth,"640,000",00BJ,Wandsworth,746.7
Ebury Trading,"Lavender Hill, London",51.4651588,-0.1550034,5.0,Wandsworth,13,3856.0,E09000032,Wandsworth,"640,000",00BJ,Wandsworth,746.7
Antique Modern Mix,"unit 121, Design Centre South Dome, London",51.4760284,-0.1829163,5.0,Hammersmith and Fulham,14,3837.0,E09000013,Hammersmith and Fulham,"740,000",00AN,Hammersmith and Fulham,714.5
Black Tie White Noise,"62 Fulham High St, London",51.4703604,-0.2107931,0.0,Hammersmith and Fulham,15,3837.0,E09000013,Hammersmith and Fulham,"740,000",00AN,Hammersmith and Fulham,714.5
HOWE Warehouse,"Unit 15B, Bldg B Parkfield Industrial Estate, Culvert Pl, London",51.4711469,-0.1544732,0.0,Wandsworth,16,3856.0,E09000032,Wandsworth,"640,000",00BJ,Wandsworth,746.7
The Shop,"645-649 Garratt Lane, London",51.4366231,-0.1865754,3.3,Wandsworth,17,3856.0,E09000032,Wandsworth,"640,000",00BJ,Wandsworth,746.7
New Kings Road Vintage Guitar Emporium,"65A New Kings Rd, London",51.475823,-0.1933474,4.6,Hammersmith and Fulham,18,3837.0,E09000013,Hammersmith and Fulham,"740,000",00AN,Hammersmith and Fulham,714.5
ShonaMac.com,"8 Bellevue Rd, London",51.44577210000001,-0.1658887,4.5,Wandsworth,19,3856.0,E09000032,Wandsworth,"640,000",00BJ,Wandsworth,746.7
Artiquea Gallery,"82 Wandsworth Bridge Rd., London",51.4738719,-0.1922307,5.0,Hammersmith and Fulham,20,3837.0,E09000013,Hammersmith and Fulham,"740,000",00AN,Hammersmith and Fulham,714.5
331,"331 Garratt Lane, London",51.44639429999999,-0.189165,4.4,Wandsworth,21,3856.0,E09000032,Wandsworth,"640,000",00BJ,Wandsworth,746.7
Retro Furniture & Services,"338 Balham High Rd, London",51.4358639,-0.1596233,5.0,Wandsworth,22,3856.0,E09000032,Wandsworth,"640,000",00BJ,Wandsworth,746.7
Saluto London,"Battersea Business Centre, London",51.4650292,-0.1549833,5.0,Wandsworth,23,3856.0,E09000032,Wandsworth,"640,000",00BJ,Wandsworth,746.7
Gutlin Clocks & Antiques,"606 King's Rd, London",51.4784546,-0.1891004,5.0,Hammersmith and Fulham,24,3837.0,E09000013,Hammersmith and Fulham,"740,000",00AN,Hammersmith and Fulham,714.5
Vittorio Ragone Design,"533 King's Rd, London",51.4802725,-0.1854478,5.0,Kensington and Chelsea,25,3844.0,E09000020,Kensington and Chelsea,"1,200,000",00AW,Kensington and Chelsea,767
Silk & Sawdust,"2 Michael Rd, London",51.47718039999999,-0.1865522,5.0,,26,,,,,,,
Silk & Sawdust,"2 Michael Rd, London",51.47718039999999,-0.1865522,5.0,,26,,,,,,,
Traid,"28 St John's Rd, London",51.4629956,-0.1679301,4.1,Wandsworth,27,3856.0,E09000032,Wandsworth,"640,000",00BJ,Wandsworth,746.7
Boutique by Shelter,"49 Northcote Rd, London",51.4594101,-0.1662286,4.8,Wandsworth,28,3856.0,E09000032,Wandsworth,"640,000",00BJ,Wandsworth,746.7
Chelsea Vintage Couture,"Office - Showroom, BY APPOINTMENT ONLY, Sloane Ave, London",51.4924574,-0.1659658,4.7,Kensington and Chelsea,29,3844.0,E09000020,Kensington and Chelsea,"1,200,000",00AW,Kensington and Chelsea,767
Vintage80scasuals,"Unit 63, 105 Culvert Rd, London",51.47090439999999,-0.1566805,0.0,Wandsworth,30,3856.0,E09000032,Wandsworth,"640,000",00BJ,Wandsworth,746.7
Hornets,"2 & 4 Kensington Church Walk, London",51.50253259999999,-0.1928196,4.9,Kensington and Chelsea,31,3844.0,E09000020,Kensington and Chelsea,"1,200,000",00AW,Kensington and Chelsea,767
Accessories of Old,"Next to Safestore, Arch 10 Munster Rd, London",51.4725788,-0.2038588,0.0,Hammersmith and Fulham,32,3837.0,E09000013,Hammersmith and Fulham,"740,000",00AN,Hammersmith and Fulham,714.5
Eclectica (Clapham),"803 Wandsworth Rd, London",51.4665809,-0.1484604,4.9,Lambeth,33,3846.0,E09000022,Lambeth,"510,000",00AY,Lambeth,673.6
De L'Époque,"8 Cheval Pl, London",51.49900359999999,-0.1667621,5.0,Westminster,34,3857.0,E09000033,Westminster,"1,070,000",00BK,Westminster,771.6
BajaboutiqueGB,"37 Elbe St, London",51.4728777,-0.1850758,0.0,Hammersmith and Fulham,35,3837.0,E09000013,Hammersmith and Fulham,"740,000",00AN,Hammersmith and Fulham,714.5
INSIGHT Fulham Dress Agency,"201 Munster Rd, London",51.4794466,-0.2118834,5.0,Hammersmith and Fulham,36,3837.0,E09000013,Hammersmith and Fulham,"740,000",00AN,Hammersmith and Fulham,714.5
NewVintage.co.uk,"256 Battersea Park Rd, London",51.4720756,-0.1661966,4.1,Wandsworth,37,3856.0,E09000032,Wandsworth,"640,000",00BJ,Wandsworth,746.7
Rewind Vintage Affairs,London,51.47750680000001,-0.1831423,5.0,Hammersmith and Fulham,38,3837.0,E09000013,Hammersmith and Fulham,"740,000",00AN,Hammersmith and Fulham,714.5
All Loved Up Boutique,"All Loved Up Boutique, 91 Charlwood St, London",51.4880187,-0.1412302,5.0,Westminster,39,3857.0,E09000033,Westminster,"1,070,000",00BK,Westminster,771.6
R13fitness,"Flat 74, Barton House, Wandsworth Bridge Rd., London",51.4682394,-0.1898545,0.0,Hammersmith and Fulham,40,3837.0,E09000013,Hammersmith and Fulham,"740,000",00AN,Hammersmith and Fulham,714.5
Retromania Fara London,"6 Upper Tachbrook St, London",51.4933772,-0.1399568,4.3,Westminster,41,3857.0,E09000033,Westminster,"1,070,000",00BK,Westminster,771.6
Deuxieme,"299 New Kings Rd, London",51.4721182,-0.203096,3.8,Hammersmith and Fulham,42,3837.0,E09000013,Hammersmith and Fulham,"740,000",00AN,Hammersmith and Fulham,714.5
Sign of the Times,"5 Elystan St, London",51.490966,-0.1667517,4.3,Kensington and Chelsea,43,3844.0,E09000020,Kensington and Chelsea,"1,200,000",00AW,Kensington and Chelsea,767
Field Antiques,"275 Lillie Rd, London",51.4829184,-0.2116797,0.0,Hammersmith and Fulham,44,3837.0,E09000013,Hammersmith and Fulham,"740,000",00AN,Hammersmith and Fulham,714.5
Good,"31 Kensington Church St, London",51.5035908,-0.1920055,4.9,Kensington and Chelsea,45,3844.0,E09000020,Kensington and Chelsea,"1,200,000",00AW,Kensington and Chelsea,767
Sheila Cook Textiles,"26 Addison Pl, London",51.5065669,-0.2134664,0.0,Kensington and Chelsea,46,3844.0,E09000020,Kensington and Chelsea,"1,200,000",00AW,Kensington and Chelsea,767
James McWhirter Antiques Ltd,"11 Langton St, London",51.4823176,-0.1807697,4.8,Kensington and Chelsea,47,3844.0,E09000020,Kensington and Chelsea,"1,200,000",00AW,Kensington and Chelsea,767
Guinevere Antiques Ltd,"574-580, King's Rd, London",51.47900199999999,-0.188218,4.8,Hammersmith and Fulham,48,3837.0,E09000013,Hammersmith and Fulham,"740,000",00AN,Hammersmith and Fulham,714.5
Eccles Road Antiques,"60 Eccles Rd, London",51.46180829999999,-0.1634526,4.9,Wandsworth,49,3856.0,E09000032,Wandsworth,"640,000",00BJ,Wandsworth,746.7
Butterworth Christopher,"71 Pimlico Rd, London",51.490362,-0.1535057,3.7,Westminster,50,3857.0,E09000033,Westminster,"1,070,000",00BK,Westminster,771.6
Antique Modern Mix,"unit 121, Design Centre South Dome, London",51.4760284,-0.1829163,5.0,Hammersmith and Fulham,51,3837.0,E09000013,Hammersmith and Fulham,"740,000",00AN,Hammersmith and Fulham,714.5
New Kings Road Vintage Guitar Emporium,"65A New Kings Rd, London",51.475823,-0.1933474,4.6,Hammersmith and Fulham,52,3837.0,E09000013,Hammersmith and Fulham,"740,000",00AN,Hammersmith and Fulham,714.5
AntikBar - Original Vintage Posters,"404 King's Rd, London",51.4836155,-0.1771506,4.9,Kensington and Chelsea,53,3844.0,E09000020,Kensington and Chelsea,"1,200,000",00AW,Kensington and Chelsea,767
Found And Vision,"318 Portobello Rd, London",51.5213081,-0.2099342,4.5,Kensington and Chelsea,54,3844.0,E09000020,Kensington and Chelsea,"1,200,000",00AW,Kensington and Chelsea,767
Beyond Retro Soho,"19-21 Argyll St, London",51.5150107,-0.1411872,4.3,Westminster,55,3857.0,E09000033,Westminster,"1,070,000",00BK,Westminster,771.6
Karen Vintage Boutique @293,"293 Portobello Rd, London",51.5191106,-0.2075888,4.7,Kensington and Chelsea,56,3844.0,E09000020,Kensington and Chelsea,"1,200,000",00AW,Kensington and Chelsea,767
282 Portobello,"282 Portobello Rd, London",51.5192983,-0.2074127,4.3,Kensington and Chelsea,57,3844.0,E09000020,Kensington and Chelsea,"1,200,000",00AW,Kensington and Chelsea,767
Last Place on Earth (uk),"82 Golborne Rd, London",51.5218537,-0.2087682,4.7,Kensington and Chelsea,58,3844.0,E09000020,Kensington and Chelsea,"1,200,000",00AW,Kensington and Chelsea,767
Rellik,"8 Golborne Rd, London",51.52414779999999,-0.2059257,4.3,Kensington and Chelsea,59,3844.0,E09000020,Kensington and Chelsea,"1,200,000",00AW,Kensington and Chelsea,767
Lovers Lane London,"77 Portobello Rd, London",51.51266390000001,-0.2021452,4.1,Kensington and Chelsea,60,3844.0,E09000020,Kensington and Chelsea,"1,200,000",00AW,Kensington and Chelsea,767
Dream Retro,"2nd Floor, Alfies Antiques Market, 13- 25 Church St, London",51.5241887,-0.1688101,0.0,Westminster,61,3857.0,E09000033,Westminster,"1,070,000",00BK,Westminster,771.6
Vintage Modes,"Alfies Antique Market, Church St, London",51.5241887,-0.1688101,0.0,Westminster,62,3857.0,E09000033,Westminster,"1,070,000",00BK,Westminster,771.6
Chelsea Vintage Couture,"Office - Showroom, BY APPOINTMENT ONLY, Sloane Ave, London",51.4924574,-0.1659658,4.7,Kensington and Chelsea,63,3844.0,E09000020,Kensington and Chelsea,"1,200,000",00AW,Kensington and Chelsea,767
Lime Green Bow VINTAGE,"5, 18 All Saints Rd, London",51.5180802,-0.2036464,4.0,Kensington and Chelsea,64,3844.0,E09000020,Kensington and Chelsea,"1,200,000",00AW,Kensington and Chelsea,767
Hornets,"2 & 4 Kensington Church Walk, London",51.50253259999999,-0.1928196,4.9,Kensington and Chelsea,65,3844.0,E09000020,Kensington and Chelsea,"1,200,000",00AW,Kensington and Chelsea,767
One Vintage,"Unit 10, Portobello Green, 281 Portobello Rd, London",51.5187839,-0.2072528,4.3,Kensington and Chelsea,66,3844.0,E09000020,Kensington and Chelsea,"1,200,000",00AW,Kensington and Chelsea,767
LanaTS Clothing,"55 Baker St, London",51.5187355,-0.1567089,0.0,Westminster,67,3857.0,E09000033,Westminster,"1,070,000",00BK,Westminster,771.6
Goldsmith Vintage,"176 Portobello Rd, London",51.5156751,-0.2046511,4.3,Kensington and Chelsea,68,3844.0,E09000020,Kensington and Chelsea,"1,200,000",00AW,Kensington and Chelsea,767
The House of Retro,"232 Portobello Rd, London",51.51735009999999,-0.20601,4.2,Kensington and Chelsea,69,3844.0,E09000020,Kensington and Chelsea,"1,200,000",00AW,Kensington and Chelsea,767
OOTO LONDON,"Claridge House, 32 Davies St, London",51.512012,-0.1477862,0.0,Westminster,70,3857.0,E09000033,Westminster,"1,070,000",00BK,Westminster,771.6
Pepper Tree London,"Unit1, 253 Portobello Rd, London",51.517531,-0.2065744,4.1,Kensington and Chelsea,71,3844.0,E09000020,Kensington and Chelsea,"1,200,000",00AW,Kensington and Chelsea,767
Eddie Wailes Studio,"13 - 25 Church St, London",51.52421589999999,-0.1688751,0.0,Westminster,72,3857.0,E09000033,Westminster,"1,070,000",00BK,Westminster,771.6
Antique Clothing Shop,"282 Portobello Rd, London",51.5192918,-0.2074124,5.0,Kensington and Chelsea,73,3844.0,E09000020,Kensington and Chelsea,"1,200,000",00AW,Kensington and Chelsea,767
Generation Vintage LDN,"242 Portobello Rd, London",51.517774,-0.2062906,3.0,Kensington and Chelsea,74,3844.0,E09000020,Kensington and Chelsea,"1,200,000",00AW,Kensington and Chelsea,767
Oliver Vintage,"Unit 7, Portobello Green Arcade, 281 Portobello Rd, London",51.5185621,-0.2073518,5.0,Kensington and Chelsea,75,3844.0,E09000020,Kensington and Chelsea,"1,200,000",00AW,Kensington and Chelsea,767
Pepper Tree London Notting Hill,"31 Pembridge Rd, Notting Hill Gate, London",51.5102901,-0.1974706,4.3,Kensington and Chelsea,76,3844.0,E09000020,Kensington and Chelsea,"1,200,000",00AW,Kensington and Chelsea,767
Nikita Sablier,"79 George St, London",51.5171123,-0.1568565,0.0,Westminster,77,3857.0,E09000033,Westminster,"1,070,000",00BK,Westminster,771.6
De L'Époque,"8 Cheval Pl, London",51.49900359999999,-0.1667621,5.0,Westminster,78,3857.0,E09000033,Westminster,"1,070,000",00BK,Westminster,771.6
Retro Man,"28 Pembridge Rd, London",51.5098437,-0.1971446,3.4,Kensington and Chelsea,79,3844.0,E09000020,Kensington and Chelsea,"1,200,000",00AW,Kensington and Chelsea,767
One Vintage,"200 Kensington Park Rd, London",51.5159972,-0.2059718,0.0,Kensington and Chelsea,80,3844.0,E09000020,Kensington and Chelsea,"1,200,000",00AW,Kensington and Chelsea,767
Portobello Vintage Market,"Greater, London",51.51872830000001,-0.2073275,4.0,Kensington and Chelsea,81,3844.0,E09000020,Kensington and Chelsea,"1,200,000",00AW,Kensington and Chelsea,767
Retro Clothing Exchange,"28 Pembridge Rd, London",51.50983189999999,-0.1971427,2.9,Kensington and Chelsea,82,3844.0,E09000020,Kensington and Chelsea,"1,200,000",00AW,Kensington and Chelsea,767
American Vintage,"185 Westbourne Grove, London",51.5145847,-0.1981431,3.8,Kensington and Chelsea,83,3844.0,E09000020,Kensington and Chelsea,"1,200,000",00AW,Kensington and Chelsea,767
Open for Vintage,"7, 10 Cavendish Square, Chandos St, London",51.5169544,-0.1442532,5.0,Westminster,84,3857.0,E09000033,Westminster,"1,070,000",00BK,Westminster,771.6
vintage clothing,London,51.52362549999999,-0.2067168,5.0,Kensington and Chelsea,85,3844.0,E09000020,Kensington and Chelsea,"1,200,000",00AW,Kensington and Chelsea,767
Vintage Stockroom,"13 - 25 Church St, London",51.524127,-0.1688328,0.0,Westminster,86,3857.0,E09000033,Westminster,"1,070,000",00BK,Westminster,771.6
Sheila Cook Textiles,"26 Addison Pl, London",51.5065669,-0.2134664,0.0,Kensington and Chelsea,87,3844.0,E09000020,Kensington and Chelsea,"1,200,000",00AW,Kensington and Chelsea,767
V 4 Vintage,"13-25 Church St, London",51.5241887,-0.1688101,0.0,Westminster,88,3857.0,E09000033,Westminster,"1,070,000",00BK,Westminster,771.6
All Loved Up Boutique,"All Loved Up Boutique, 91 Charlwood St, London",51.4880187,-0.1412302,5.0,Westminster,89,3857.0,E09000033,Westminster,"1,070,000",00BK,Westminster,771.6
Good,"180 Queensway, London",51.51557,-0.1880176,5.0,Westminster,90,3857.0,E09000033,Westminster,"1,070,000",00BK,Westminster,771.6
Linda Bee,"Alfie’s Antique Market, 13 - 25 Church St, London",51.5241887,-0.1688101,3.7,Westminster,91,3857.0,E09000033,Westminster,"1,070,000",00BK,Westminster,771.6
Jane Bourvis,"6, 281 Portobello Grn, Portobello Rd, London",51.5185621,-0.2073518,4.4,Kensington and Chelsea,92,3844.0,E09000020,Kensington and Chelsea,"1,200,000",00AW,Kensington and Chelsea,767
Alice's,"86 Portobello Rd, London",51.51278,-0.2019071,4.5,Kensington and Chelsea,93,3844.0,E09000020,Kensington and Chelsea,"1,200,000",00AW,Kensington and Chelsea,767
Retromania Fara London,"6 Upper Tachbrook St, London",51.4933772,-0.1399568,4.3,Westminster,94,3857.0,E09000033,Westminster,"1,070,000",00BK,Westminster,771.6
Gillian Horsup,"Alfies Antiques, Alfies Antique Market, 13-25 Church St, London",51.5241887,-0.1688101,5.0,Westminster,95,3857.0,E09000033,Westminster,"1,070,000",00BK,Westminster,771.6
Vintage Fur Garden,"82 Portobello Rd, London",51.5126783,-0.2016607,5.0,Kensington and Chelsea,96,3844.0,E09000020,Kensington and Chelsea,"1,200,000",00AW,Kensington and Chelsea,767
Somebody & Sons Vintage Archive,"1A Beethoven St, London",51.530617,-0.2071881,0.0,Westminster,97,3857.0,E09000033,Westminster,"1,070,000",00BK,Westminster,771.6
This Old Thing London,"79 Portobello Rd, London",51.5127324,-0.2021264,5.0,Kensington and Chelsea,98,3844.0,E09000020,Kensington and Chelsea,"1,200,000",00AW,Kensington and Chelsea,767
American Vintage,"35 Marylebone High St, London",51.5205091,-0.151705,3.4,Westminster,99,3857.0,E09000033,Westminster,"1,070,000",00BK,Westminster,771.6
Grays Antique Market,"58 Davies St, London",51.5137017,-0.1486451,4.1,Westminster,100,3857.0,E09000033,Westminster,"1,070,000",00BK,Westminster,771.6
Sign of the Times,"5 Elystan St, London",51.490966,-0.1667517,4.3,Kensington and Chelsea,101,3844.0,E09000020,Kensington and Chelsea,"1,200,000",00AW,Kensington and Chelsea,767
Good,"31 Kensington Church St, London",51.5035908,-0.1920055,4.9,Kensington and Chelsea,102,3844.0,E09000020,Kensington and Chelsea,"1,200,000",00AW,Kensington and Chelsea,767
ANTIQUES,London,51.5122569,-0.1546661,4.8,Westminster,103,3857.0,E09000033,Westminster,"1,070,000",00BK,Westminster,771.6
Retro Living,"7A Church St, London",51.5244864,-0.1685567,5.0,Westminster,104,3857.0,E09000033,Westminster,"1,070,000",00BK,Westminster,771.6
Alfies Antique Market,"13 - 25 Church St, London",51.5241255,-0.1688334,4.3,Westminster,105,3857.0,E09000033,Westminster,"1,070,000",00BK,Westminster,771.6
SOMLO - London & OMEGA Vintage,"35-36 Burlington Arcade, London",51.509631,-0.14092,4.5,Westminster,106,3857.0,E09000033,Westminster,"1,070,000",00BK,Westminster,771.6
pillowHeat,"Vans Store, 47 Carnaby St, London",51.5128206,-0.1386783,4.9,Westminster,107,3857.0,E09000033,Westminster,"1,070,000",00BK,Westminster,771.6
Timewise Vintage Watches,"117 Portobello Rd, London",51.51381240000001,-0.2034662,0.0,Kensington and Chelsea,108,3844.0,E09000020,Kensington and Chelsea,"1,200,000",00AW,Kensington and Chelsea,767
The Vintage Showroom,"By Appointment) UNIT 20, Buspace Studios, Conlan St, London",51.525636,-0.210764,3.7,Kensington and Chelsea,109,3844.0,E09000020,Kensington and Chelsea,"1,200,000",00AW,Kensington and Chelsea,767
Pip Hackett Millinery,"65 Alfred Rd, London",51.5211277,-0.1962841,0.0,Westminster,110,3857.0,E09000033,Westminster,"1,070,000",00BK,Westminster,771.6
Muirshin Durkin,"67 Golborne Rd, London",51.5221205,-0.2079296,3.4,Kensington and Chelsea,111,3844.0,E09000020,Kensington and Chelsea,"1,200,000",00AW,Kensington and Chelsea,767
Found And Vision,"318 Portobello Rd, London",51.5213081,-0.2099342,4.5,Kensington and Chelsea,112,3844.0,E09000020,Kensington and Chelsea,"1,200,000",00AW,Kensington and Chelsea,767
Beyond Retro Soho,"19-21 Argyll St, London",51.5150107,-0.1411872,4.3,Westminster,113,3857.0,E09000033,Westminster,"1,070,000",00BK,Westminster,771.6
The Vintage Collection,"Arch 59, Camden Stables Market, London",51.5420455,-0.1469688,5.0,Camden,114,3831.0,E09000007,Camden,"717,500",00AG,Camden,694.2
Rokit Camden,"225 Camden High St, London",51.5398923,-0.143589,4.1,Camden,115,3831.0,E09000007,Camden,"717,500",00AG,Camden,694.2
Karen Vintage Boutique @293,"293 Portobello Rd, London",51.5191106,-0.2075888,4.7,Kensington and Chelsea,116,3844.0,E09000020,Kensington and Chelsea,"1,200,000",00AW,Kensington and Chelsea,767
282 Portobello,"282 Portobello Rd, London",51.5192983,-0.2074127,4.3,Kensington and Chelsea,117,3844.0,E09000020,Kensington and Chelsea,"1,200,000",00AW,Kensington and Chelsea,767
St Cyr Vintage,"56 Saddle Row Camden Market, London",51.5421391,-0.1483749,4.3,Camden,118,3831.0,E09000007,Camden,"717,500",00AG,Camden,694.2
Berty and Gerty Vintage,"53 Camden Lock Pl, London",51.5413907,-0.1465884,0.0,Camden,119,3831.0,E09000007,Camden,"717,500",00AG,Camden,694.2
Last Place on Earth (uk),"82 Golborne Rd, London",51.5218537,-0.2087682,4.7,Kensington and Chelsea,120,3844.0,E09000020,Kensington and Chelsea,"1,200,000",00AW,Kensington and Chelsea,767
What Goes Around Comes Around,"Unit 32, The Stables Market Chalk, Farm Road, London",51.5420969,-0.1466583,3.9,Camden,121,3831.0,E09000007,Camden,"717,500",00AG,Camden,694.2
Rellik,"8 Golborne Rd, London",51.52414779999999,-0.2059257,4.3,Kensington and Chelsea,122,3844.0,E09000020,Kensington and Chelsea,"1,200,000",00AW,Kensington and Chelsea,767
Camden Threads - An online shop for the best independent brands and vintage boutiques,"44A Camden Lock Pl, London",51.5414567,-0.1463852,0.0,Camden,123,3831.0,E09000007,Camden,"717,500",00AG,Camden,694.2
Lovers Lane London,"77 Portobello Rd, London",51.51266390000001,-0.2021452,4.1,Kensington and Chelsea,124,3844.0,E09000020,Kensington and Chelsea,"1,200,000",00AW,Kensington and Chelsea,767
Dream Retro,"2nd Floor, Alfies Antiques Market, 13- 25 Church St, London",51.5241887,-0.1688101,0.0,Westminster,125,3857.0,E09000033,Westminster,"1,070,000",00BK,Westminster,771.6
Vintage Modes,"Alfies Antique Market, Church St, London",51.5241887,-0.1688101,0.0,Westminster,126,3857.0,E09000033,Westminster,"1,070,000",00BK,Westminster,771.6
Funkytownshop,"Ground Floor, 232 Camden High St, London",51.5409704,-0.1443065,3.3,Camden,127,3831.0,E09000007,Camden,"717,500",00AG,Camden,694.2
Lime Green Bow VINTAGE,"5, 18 All Saints Rd, London",51.5180802,-0.2036464,4.0,Kensington and Chelsea,128,3844.0,E09000020,Kensington and Chelsea,"1,200,000",00AW,Kensington and Chelsea,767
OuterLimitz Vintage,"12B, Camden Stables Market, Chalk Farm Rd, London",51.5420455,-0.1469688,0.0,Camden,129,3831.0,E09000007,Camden,"717,500",00AG,Camden,694.2
Modern Age Vintage Clothing,"65 Chalk Farm Rd, London",51.5433049,-0.1503682,3.3,Camden,130,3831.0,E09000007,Camden,"717,500",00AG,Camden,694.2
One Vintage,"Unit 10, Portobello Green, 281 Portobello Rd, London",51.5187839,-0.2072528,4.3,Kensington and Chelsea,131,3844.0,E09000020,Kensington and Chelsea,"1,200,000",00AW,Kensington and Chelsea,767
LanaTS Clothing,"55 Baker St, London",51.5187355,-0.1567089,0.0,Westminster,132,3857.0,E09000033,Westminster,"1,070,000",00BK,Westminster,771.6
Goldsmith Vintage,"176 Portobello Rd, London",51.5156751,-0.2046511,4.3,Kensington and Chelsea,133,3844.0,E09000020,Kensington and Chelsea,"1,200,000",00AW,Kensington and Chelsea,767
The House of Retro,"232 Portobello Rd, London",51.51735009999999,-0.20601,4.2,Kensington and Chelsea,134,3844.0,E09000020,Kensington and Chelsea,"1,200,000",00AW,Kensington and Chelsea,767
OOTO LONDON,"Claridge House, 32 Davies St, London",51.512012,-0.1477862,0.0,Westminster,135,3857.0,E09000033,Westminster,"1,070,000",00BK,Westminster,771.6
Pepper Tree London,"Unit1, 253 Portobello Rd, London",51.517531,-0.2065744,4.1,Kensington and Chelsea,136,3844.0,E09000020,Kensington and Chelsea,"1,200,000",00AW,Kensington and Chelsea,767
Eddie Wailes Studio,"13 - 25 Church St, London",51.52421589999999,-0.1688751,0.0,Westminster,137,3857.0,E09000033,Westminster,"1,070,000",00BK,Westminster,771.6
Antique Clothing Shop,"282 Portobello Rd, London",51.5192918,-0.2074124,5.0,Kensington and Chelsea,138,3844.0,E09000020,Kensington and Chelsea,"1,200,000",00AW,Kensington and Chelsea,767
Generation Vintage LDN,"242 Portobello Rd, London",51.517774,-0.2062906,3.0,Kensington and Chelsea,139,3844.0,E09000020,Kensington and Chelsea,"1,200,000",00AW,Kensington and Chelsea,767
Oliver Vintage,"Unit 7, Portobello Green Arcade, 281 Portobello Rd, London",51.5185621,-0.2073518,5.0,Kensington and Chelsea,140,3844.0,E09000020,Kensington and Chelsea,"1,200,000",00AW,Kensington and Chelsea,767
A Dandy In Aspic,"Market, 748-749, North Yard Stables, Chalk Farm Rd, London",51.5425015,-0.1490213,3.4,Camden,141,3831.0,E09000007,Camden,"717,500",00AG,Camden,694.2
Peekaboo Vintage Marketplace,"149a Abbey Rd, London",51.540942,-0.1910264,5.0,Camden,142,3831.0,E09000007,Camden,"717,500",00AG,Camden,694.2
DreamingLion Vintage,"Unit D28, Horse Tunnel, The Stables Market, Chalk Farm Rd, London",51.5420455,-0.1469688,4.5,Camden,143,3831.0,E09000007,Camden,"717,500",00AG,Camden,694.2
Pepper Tree London Notting Hill,"31 Pembridge Rd, Notting Hill Gate, London",51.5102901,-0.1974706,4.3,Kensington and Chelsea,144,3844.0,E09000020,Kensington and Chelsea,"1,200,000",00AW,Kensington and Chelsea,767
Somebody & Sons Vintage Archive,"1A Beethoven St, London",51.530617,-0.2071881,0.0,Westminster,145,3857.0,E09000033,Westminster,"1,070,000",00BK,Westminster,771.6
One Vintage,"200 Kensington Park Rd, London",51.5159972,-0.2059718,0.0,Kensington and Chelsea,146,3844.0,E09000020,Kensington and Chelsea,"1,200,000",00AW,Kensington and Chelsea,767
Portobello Vintage Market,"Greater, London",51.51872830000001,-0.2073275,4.0,Kensington and Chelsea,147,3844.0,E09000020,Kensington and Chelsea,"1,200,000",00AW,Kensington and Chelsea,767
Retro Man,"28 Pembridge Rd, London",51.5098437,-0.1971446,3.4,Kensington and Chelsea,148,3844.0,E09000020,Kensington and Chelsea,"1,200,000",00AW,Kensington and Chelsea,767
American Vintage,"185 Westbourne Grove, London",51.5145847,-0.1981431,3.8,Kensington and Chelsea,149,3844.0,E09000020,Kensington and Chelsea,"1,200,000",00AW,Kensington and Chelsea,767
VOUTIQUE LTD,"31 Claremont Rd, London",51.5332266,-0.2069859,0.0,Westminster,150,3857.0,E09000033,Westminster,"1,070,000",00BK,Westminster,771.6
Open for Vintage,"7, 10 Cavendish Square, Chandos St, London",51.5169544,-0.1442532,5.0,Westminster,151,3857.0,E09000033,Westminster,"1,070,000",00BK,Westminster,771.6
vintage clothing,London,51.52362549999999,-0.2067168,5.0,Kensington and Chelsea,152,3844.0,E09000020,Kensington and Chelsea,"1,200,000",00AW,Kensington and Chelsea,767
Vintage Stockroom,"13 - 25 Church St, London",51.524127,-0.1688328,0.0,Westminster,153,3857.0,E09000033,Westminster,"1,070,000",00BK,Westminster,771.6
Retro Woman,"20 Pembridge Rd, London",51.5096466,-0.1971298,2.7,Kensington and Chelsea,154,3844.0,E09000020,Kensington and Chelsea,"1,200,000",00AW,Kensington and Chelsea,767
V 4 Vintage,"13-25 Church St, London",51.5241887,-0.1688101,0.0,Westminster,155,3857.0,E09000033,Westminster,"1,070,000",00BK,Westminster,771.6
Good,"180 Queensway, London",51.51557,-0.1880176,5.0,Westminster,156,3857.0,E09000033,Westminster,"1,070,000",00BK,Westminster,771.6
Linda Bee,"Alfie’s Antique Market, 13 - 25 Church St, London",51.5241887,-0.1688101,3.7,Westminster,157,3857.0,E09000033,Westminster,"1,070,000",00BK,Westminster,771.6
Jane Bourvis,"6, 281 Portobello Grn, Portobello Rd, London",51.5185621,-0.2073518,4.4,Kensington and Chelsea,158,3844.0,E09000020,Kensington and Chelsea,"1,200,000",00AW,Kensington and Chelsea,767
Alice's,"86 Portobello Rd, London",51.51278,-0.2019071,4.5,Kensington and Chelsea,159,3844.0,E09000020,Kensington and Chelsea,"1,200,000",00AW,Kensington and Chelsea,767
Gillian Horsup,"Alfies Antiques, Alfies Antique Market, 13-25 Church St, London",51.5241887,-0.1688101,5.0,Westminster,160,3857.0,E09000033,Westminster,"1,070,000",00BK,Westminster,771.6
Vintage Fur Garden,"82 Portobello Rd, London",51.5126783,-0.2016607,5.0,Kensington and Chelsea,161,3844.0,E09000020,Kensington and Chelsea,"1,200,000",00AW,Kensington and Chelsea,767
SoSo Retro,"Unit 527, The Stables Market, Chalk Farm Rd, London",51.5420455,-0.1469688,5.0,Camden,162,3831.0,E09000007,Camden,"717,500",00AG,Camden,694.2
SK.Vintage,"51 Fortess Rd, London",51.5539851,-0.1406663,4.5,Camden,163,3831.0,E09000007,Camden,"717,500",00AG,Camden,694.2
This Old Thing London,"79 Portobello Rd, London",51.5127324,-0.2021264,5.0,Kensington and Chelsea,164,3844.0,E09000020,Kensington and Chelsea,"1,200,000",00AW,Kensington and Chelsea,767
American Vintage,"35 Marylebone High St, London",51.5205091,-0.151705,3.4,Westminster,165,3857.0,E09000033,Westminster,"1,070,000",00BK,Westminster,771.6
Grays Antique Market,"58 Davies St, London",51.5137017,-0.1486451,4.1,Westminster,166,3857.0,E09000033,Westminster,"1,070,000",00BK,Westminster,771.6
Collectif Camden Market,"36, Camden's Stables Market, Chalk Farm Rd, London",51.54222439999999,-0.1469208,4.7,Camden,167,3831.0,E09000007,Camden,"717,500",00AG,Camden,694.2
Exclusive,"2 Flask Walk, London",51.55638070000001,-0.1776995,2.5,Camden,168,3831.0,E09000007,Camden,"717,500",00AG,Camden,694.2
Vintage Clothing,"53 Chalk Farm Rd, London",51.5430371,-0.1501184,0.0,Camden,169,3831.0,E09000007,Camden,"717,500",00AG,Camden,694.2
RETRO GIFTS RETAIL,"80 Portobello Rd, London",51.51216549999999,-0.2006635,0.0,Kensington and Chelsea,170,3844.0,E09000020,Kensington and Chelsea,"1,200,000",00AW,Kensington and Chelsea,767
Vintage Qi - Eclectic Furniture & Home Décor,"5 Lonsdale Rd, London",51.5375636,-0.2024299,5.0,Brent,171,3829.0,E09000005,Brent,"450,000",00AE,Brent,553.1
The Vintage Collection,"Arch 59, Camden Stables Market, London",51.5420455,-0.1469688,5.0,Camden,172,3831.0,E09000007,Camden,"717,500",00AG,Camden,694.2
Rokit Camden,"225 Camden High St, London",51.5398923,-0.143589,4.1,Camden,173,3831.0,E09000007,Camden,"717,500",00AG,Camden,694.2
St Cyr Vintage,"56 Saddle Row Camden Market, London",51.5421391,-0.1483749,4.3,Camden,174,3831.0,E09000007,Camden,"717,500",00AG,Camden,694.2
Berty and Gerty Vintage,"53 Camden Lock Pl, London",51.5413907,-0.1465884,0.0,Camden,175,3831.0,E09000007,Camden,"717,500",00AG,Camden,694.2
What Goes Around Comes Around,"Unit 32, The Stables Market Chalk, Farm Road, London",51.5420969,-0.1466583,3.9,Camden,176,3831.0,E09000007,Camden,"717,500",00AG,Camden,694.2
Camden Threads - An online shop for the best independent brands and vintage boutiques,"44A Camden Lock Pl, London",51.5414567,-0.1463852,0.0,Camden,177,3831.0,E09000007,Camden,"717,500",00AG,Camden,694.2
Funkytownshop,"Ground Floor, 232 Camden High St, London",51.5409704,-0.1443065,3.3,Camden,178,3831.0,E09000007,Camden,"717,500",00AG,Camden,694.2
OuterLimitz Vintage,"12B, Camden Stables Market, Chalk Farm Rd, London",51.5420455,-0.1469688,0.0,Camden,179,3831.0,E09000007,Camden,"717,500",00AG,Camden,694.2
Modern Age Vintage Clothing,"65 Chalk Farm Rd, London",51.5433049,-0.1503682,3.3,Camden,180,3831.0,E09000007,Camden,"717,500",00AG,Camden,694.2
A Dandy In Aspic,"Market, 748-749, North Yard Stables, Chalk Farm Rd, London",51.5425015,-0.1490213,3.4,Camden,181,3831.0,E09000007,Camden,"717,500",00AG,Camden,694.2
Exclusive,"2 Flask Walk, London",51.55638070000001,-0.1776995,2.5,Camden,182,3831.0,E09000007,Camden,"717,500",00AG,Camden,694.2
Peekaboo Vintage Marketplace,"149a Abbey Rd, London",51.540942,-0.1910264,5.0,Camden,183,3831.0,E09000007,Camden,"717,500",00AG,Camden,694.2
DreamingLion Vintage,"Unit D28, Horse Tunnel, The Stables Market, Chalk Farm Rd, London",51.5420455,-0.1469688,4.5,Camden,184,3831.0,E09000007,Camden,"717,500",00AG,Camden,694.2
Arts And Vintage,"263 Archway Rd, London",51.5762988,-0.1442271,4.8,Haringey,185,3838.0,E09000014,Haringey,"487,500",00AP,Haringey,542.6
GROUND ONE SIX,"6 Malden Rd, London",51.5461817,-0.1506958,5.0,Camden,186,3831.0,E09000007,Camden,"717,500",00AG,Camden,694.2
SoSo Retro,"Unit 527, The Stables Market, Chalk Farm Rd, London",51.5420455,-0.1469688,5.0,Camden,187,3831.0,E09000007,Camden,"717,500",00AG,Camden,694.2
SK.Vintage,"51 Fortess Rd, London",51.5539851,-0.1406663,4.5,Camden,188,3831.0,E09000007,Camden,"717,500",00AG,Camden,694.2
Collectif Camden Market,"36, Camden's Stables Market, Chalk Farm Rd, London",51.54222439999999,-0.1469208,4.7,Camden,189,3831.0,E09000007,Camden,"717,500",00AG,Camden,694.2
Vintage Clothing,"53 Chalk Farm Rd, London",51.5430371,-0.1501184,0.0,Camden,190,3831.0,E09000007,Camden,"717,500",00AG,Camden,694.2
20thc Quarters,"265 Archway Rd, London",51.5763249,-0.1442879,4.7,Haringey,191,3838.0,E09000014,Haringey,"487,500",00AP,Haringey,542.6
Vintage Qi - Eclectic Furniture & Home Décor,"5 Lonsdale Rd, London",51.5375636,-0.2024299,5.0,Brent,192,3829.0,E09000005,Brent,"450,000",00AE,Brent,553.1
VOUTIQUE LTD,"31 Claremont Rd, London",51.5332266,-0.2069859,0.0,Westminster,193,3857.0,E09000033,Westminster,"1,070,000",00BK,Westminster,771.6
Camden Retro Signs,"8A, The Stables Market, PADDOCK LANE, Chalk Farm Rd, London",51.5420455,-0.1469688,5.0,Camden,194,3831.0,E09000007,Camden,"717,500",00AG,Camden,694.2
rollos vintage furniture,"391 Archway Rd, London",51.5783701,-0.1490951,5.0,Haringey,195,3838.0,E09000014,Haringey,"487,500",00AP,Haringey,542.6
Roomscape,"In, Belmont St, London",51.54479000000001,-0.1512781,0.0,Camden,196,3831.0,E09000007,Camden,"717,500",00AG,Camden,694.2
Camden Thrift Store,"51 Chalk Farm Rd, London",51.543116,-0.1494112,4.5,Camden,197,3831.0,E09000007,Camden,"717,500",00AG,Camden,694.2
Gonnermann,"408-410 Archway Rd, London",51.5766188,-0.1441633,4.9,Haringey,198,3838.0,E09000014,Haringey,"487,500",00AP,Haringey,542.6
Vintage Luggage,"18 Delancey St, London",51.5368475,-0.1426188,4.2,Camden,199,3831.0,E09000007,Camden,"717,500",00AG,Camden,694.2
Antique Kelims,"Highgate Rd, London",51.5529237,-0.1420899,0.0,Camden,200,3831.0,E09000007,Camden,"717,500",00AG,Camden,694.2
Traid Camden,"154 Camden High St, London",51.5385937,-0.1421116,3.7,Camden,201,3831.0,E09000007,Camden,"717,500",00AG,Camden,694.2
Episode,"26 Chalk Farm Rd, London",51.542509,-0.146978,0.0,Camden,202,3831.0,E09000007,Camden,"717,500",00AG,Camden,694.2
Koo Style,"Unit 14/8, Camden Stables Market, Chalk Farm Rd, London",51.54197300000001,-0.1477216,4.2,Camden,203,3831.0,E09000007,Camden,"717,500",00AG,Camden,694.2
CIRCA VINTAGE,"87a Lansdowne Way, London",51.4748348,-0.1286932,4.7,Lambeth,204,3846.0,E09000022,Lambeth,"510,000",00AY,Lambeth,673.6
Vintage80scasuals,"Unit 63, 105 Culvert Rd, London",51.47090439999999,-0.1566805,0.0,Wandsworth,205,3856.0,E09000032,Wandsworth,"640,000",00BJ,Wandsworth,746.7
Eclectica (Clapham),"803 Wandsworth Rd, London",51.4665809,-0.1484604,4.9,Lambeth,206,3846.0,E09000022,Lambeth,"510,000",00AY,Lambeth,673.6
BajaboutiqueGB,"37 Elbe St, London",51.4728777,-0.1850758,0.0,Hammersmith and Fulham,207,3837.0,E09000013,Hammersmith and Fulham,"740,000",00AN,Hammersmith and Fulham,714.5
NewVintage.co.uk,"256 Battersea Park Rd, London",51.4720756,-0.1661966,4.1,Wandsworth,208,3856.0,E09000032,Wandsworth,"640,000",00BJ,Wandsworth,746.7
Rewind Vintage Affairs,London,51.47750680000001,-0.1831423,5.0,Hammersmith and Fulham,209,3837.0,E09000013,Hammersmith and Fulham,"740,000",00AN,Hammersmith and Fulham,714.5
My Vintage J Box,"58 Streatham High Rd, London",51.4367663,-0.1280156,5.0,Lambeth,210,3846.0,E09000022,Lambeth,"510,000",00AY,Lambeth,673.6
Northcote Road Antiques Market,"155a Northcote Rd, London",51.455341,-0.1645277,4.4,Wandsworth,211,3856.0,E09000032,Wandsworth,"640,000",00BJ,Wandsworth,746.7
R13fitness,"Flat 74, Barton House, Wandsworth Bridge Rd., London",51.4682394,-0.1898545,0.0,Hammersmith and Fulham,212,3837.0,E09000013,Hammersmith and Fulham,"740,000",00AN,Hammersmith and Fulham,714.5
Guinevere Antiques Ltd,"574-580, King's Rd, London",51.47900199999999,-0.188218,4.8,Hammersmith and Fulham,213,3837.0,E09000013,Hammersmith and Fulham,"740,000",00AN,Hammersmith and Fulham,714.5
Eccles Road Antiques,"60 Eccles Rd, London",51.46180829999999,-0.1634526,4.9,Wandsworth,214,3856.0,E09000032,Wandsworth,"640,000",00BJ,Wandsworth,746.7
Antique Modern Mix,"unit 121, Design Centre South Dome, London",51.4760284,-0.1829163,5.0,Hammersmith and Fulham,215,3837.0,E09000013,Hammersmith and Fulham,"740,000",00AN,Hammersmith and Fulham,714.5
ShonaMac.com,"8 Bellevue Rd, London",51.44577210000001,-0.1658887,4.5,Wandsworth,216,3856.0,E09000032,Wandsworth,"640,000",00BJ,Wandsworth,746.7
Loved again Ltd.,"140 Stockwell Rd, London",51.4673937,-0.1182007,5.0,Lambeth,217,3846.0,E09000022,Lambeth,"510,000",00AY,Lambeth,673.6
Traid,"2 Acre Ln, London",51.4612282,-0.1162417,4.1,Lambeth,218,3846.0,E09000022,Lambeth,"510,000",00AY,Lambeth,673.6
Retro Furniture & Services,"338 Balham High Rd, London",51.4358639,-0.1596233,5.0,Wandsworth,219,3856.0,E09000032,Wandsworth,"640,000",00BJ,Wandsworth,746.7
331,"331 Garratt Lane, London",51.44639429999999,-0.189165,4.4,Wandsworth,220,3856.0,E09000032,Wandsworth,"640,000",00BJ,Wandsworth,746.7
Saluto London,"Battersea Business Centre, London",51.4650292,-0.1549833,5.0,Wandsworth,221,3856.0,E09000032,Wandsworth,"640,000",00BJ,Wandsworth,746.7
Gutlin Clocks & Antiques,"606 King's Rd, London",51.4784546,-0.1891004,5.0,Hammersmith and Fulham,222,3837.0,E09000013,Hammersmith and Fulham,"740,000",00AN,Hammersmith and Fulham,714.5
CIRCA VINTAGE,"87a Lansdowne Way, London",51.4748348,-0.1286932,4.7,Lambeth,223,3846.0,E09000022,Lambeth,"510,000",00AY,Lambeth,673.6
Retromania Fara London,"6 Upper Tachbrook St, London",51.4933772,-0.1399568,4.3,Westminster,224,3857.0,E09000033,Westminster,"1,070,000",00BK,Westminster,771.6
Chelsea Vintage Couture,"Office - Showroom, BY APPOINTMENT ONLY, Sloane Ave, London",51.4924574,-0.1659658,4.7,Kensington and Chelsea,225,3844.0,E09000020,Kensington and Chelsea,"1,200,000",00AW,Kensington and Chelsea,767
Vintage80scasuals,"Unit 63, 105 Culvert Rd, London",51.47090439999999,-0.1566805,0.0,Wandsworth,226,3856.0,E09000032,Wandsworth,"640,000",00BJ,Wandsworth,746.7
Eclectica (Clapham),"803 Wandsworth Rd, London",51.4665809,-0.1484604,4.9,Lambeth,227,3846.0,E09000022,Lambeth,"510,000",00AY,Lambeth,673.6
De L'Époque,"8 Cheval Pl, London",51.49900359999999,-0.1667621,5.0,Westminster,228,3857.0,E09000033,Westminster,"1,070,000",00BK,Westminster,771.6
All Loved Up Boutique,"All Loved Up Boutique, 91 Charlwood St, London",51.4880187,-0.1412302,5.0,Westminster,229,3857.0,E09000033,Westminster,"1,070,000",00BK,Westminster,771.6
BajaboutiqueGB,"37 Elbe St, London",51.4728777,-0.1850758,0.0,Hammersmith and Fulham,230,3837.0,E09000013,Hammersmith and Fulham,"740,000",00AN,Hammersmith and Fulham,714.5
NewVintage.co.uk,"256 Battersea Park Rd, London",51.4720756,-0.1661966,4.1,Wandsworth,231,3856.0,E09000032,Wandsworth,"640,000",00BJ,Wandsworth,746.7
Rewind Vintage Affairs,London,51.47750680000001,-0.1831423,5.0,Hammersmith and Fulham,232,3837.0,E09000013,Hammersmith and Fulham,"740,000",00AN,Hammersmith and Fulham,714.5
Sign of the Times,"5 Elystan St, London",51.490966,-0.1667517,4.3,Kensington and Chelsea,233,3844.0,E09000020,Kensington and Chelsea,"1,200,000",00AW,Kensington and Chelsea,767
R13fitness,"Flat 74, Barton House, Wandsworth Bridge Rd., London",51.4682394,-0.1898545,0.0,Hammersmith and Fulham,234,3837.0,E09000013,Hammersmith and Fulham,"740,000",00AN,Hammersmith and Fulham,714.5
James McWhirter Antiques Ltd,"11 Langton St, London",51.4823176,-0.1807697,4.8,Kensington and Chelsea,235,3844.0,E09000020,Kensington and Chelsea,"1,200,000",00AW,Kensington and Chelsea,767
Guinevere Antiques Ltd,"574-580, King's Rd, London",51.47900199999999,-0.188218,4.8,Hammersmith and Fulham,236,3837.0,E09000013,Hammersmith and Fulham,"740,000",00AN,Hammersmith and Fulham,714.5
Eccles Road Antiques,"60 Eccles Rd, London",51.46180829999999,-0.1634526,4.9,Wandsworth,237,3856.0,E09000032,Wandsworth,"640,000",00BJ,Wandsworth,746.7
Butterworth Christopher,"71 Pimlico Rd, London",51.490362,-0.1535057,3.7,Westminster,238,3857.0,E09000033,Westminster,"1,070,000",00BK,Westminster,771.6
Antique Modern Mix,"unit 121, Design Centre South Dome, London",51.4760284,-0.1829163,5.0,Hammersmith and Fulham,239,3837.0,E09000013,Hammersmith and Fulham,"740,000",00AN,Hammersmith and Fulham,714.5
Beyond Retro Soho,"19-21 Argyll St, London",51.5150107,-0.1411872,4.3,Westminster,240,3857.0,E09000033,Westminster,"1,070,000",00BK,Westminster,771.6
PICKNWEIGHT - VINTAGE KILO STORE,"14-18 Neal St, London",51.5138476,-0.1248029,3.6,Westminster,241,3857.0,E09000033,Westminster,"1,070,000",00BK,Westminster,771.6
Reign Vintage,"12 Berwick St, London",51.51340130000001,-0.1345882,4.3,Westminster,242,3857.0,E09000033,Westminster,"1,070,000",00BK,Westminster,771.6
Wow Retro London Covent Garden,"179 Drury Ln, London",51.51564699999999,-0.1234713,4.3,Camden,243,3831.0,E09000007,Camden,"717,500",00AG,Camden,694.2
Blackout II - Vintage Clothing London,"51 Endell St, London",51.5148867,-0.125315,3.9,Camden,244,3831.0,E09000007,Camden,"717,500",00AG,Camden,694.2
Vintage Threads,"69 Neal St, London",51.51494020000001,-0.1266051,4.3,Camden,245,3831.0,E09000007,Camden,"717,500",00AG,Camden,694.2
Pop Boutique,"30 Short's Gardens, London",51.5144586,-0.1254132,4.1,Camden,246,3831.0,E09000007,Camden,"717,500",00AG,Camden,694.2
Goldsmith Vintage,"121, 123 Charing Cross Rd, London",51.5149524,-0.1301147,4.2,Westminster,247,3857.0,E09000033,Westminster,"1,070,000",00BK,Westminster,771.6
Rokit Covent Garden,"42 Shelton St, London",51.5140748,-0.1244384,4.2,Westminster,248,3857.0,E09000033,Westminster,"1,070,000",00BK,Westminster,771.6
goldsmith vintage,"57 Neal St, London",51.51476760000001,-0.1263361,3.4,Camden,249,3831.0,E09000007,Camden,"717,500",00AG,Camden,694.2
Past Trash,"38 Neal St, London",51.5143694,-0.1253947,4.7,Camden,250,3831.0,E09000007,Camden,"717,500",00AG,Camden,694.2
Wings Vintage,"105A Euston St., London",51.526494,-0.1363579,4.0,Camden,251,3831.0,E09000007,Camden,"717,500",00AG,Camden,694.2
Retromania Fara London,"6 Upper Tachbrook St, London",51.4933772,-0.1399568,4.3,Westminster,252,3857.0,E09000033,Westminster,"1,070,000",00BK,Westminster,771.6
Dunno. Curated,"8 Berwick St, London",51.5132162,-0.134507,4.7,Westminster,253,3857.0,E09000033,Westminster,"1,070,000",00BK,Westminster,771.6
Gong Nong Bing Vintage,"68 Charing Cross Rd, London",51.5124053,-0.1284323,5.0,Westminster,254,3857.0,E09000033,Westminster,"1,070,000",00BK,Westminster,771.6
Dream Retro,"2nd Floor, Alfies Antiques Market, 13- 25 Church St, London",51.5241887,-0.1688101,0.0,Westminster,255,3857.0,E09000033,Westminster,"1,070,000",00BK,Westminster,771.6
Vintage Modes,"Alfies Antique Market, Church St, London",51.5241887,-0.1688101,0.0,Westminster,256,3857.0,E09000033,Westminster,"1,070,000",00BK,Westminster,771.6
COW Vintage,"13 Short's Gardens, London",51.5141663,-0.126386,3.7,Camden,257,3831.0,E09000007,Camden,"717,500",00AG,Camden,694.2
Chelsea Vintage Couture,"Office - Showroom, BY APPOINTMENT ONLY, Sloane Ave, London",51.4924574,-0.1659658,4.7,Kensington and Chelsea,258,3844.0,E09000020,Kensington and Chelsea,"1,200,000",00AW,Kensington and Chelsea,767
LanaTS Clothing,"55 Baker St, London",51.5187355,-0.1567089,0.0,Westminster,259,3857.0,E09000033,Westminster,"1,070,000",00BK,Westminster,771.6
OOTO LONDON,"Claridge House, 32 Davies St, London",51.512012,-0.1477862,0.0,Westminster,260,3857.0,E09000033,Westminster,"1,070,000",00BK,Westminster,771.6
Vintage Clothing,"42 Shelton St, London",51.5140221,-0.1245663,5.0,Westminster,261,3857.0,E09000033,Westminster,"1,070,000",00BK,Westminster,771.6
Eddie Wailes Studio,"13 - 25 Church St, London",51.52421589999999,-0.1688751,0.0,Westminster,262,3857.0,E09000033,Westminster,"1,070,000",00BK,Westminster,771.6
Good,"33 Neal St, London",51.5142216,-0.1256036,5.0,Camden,263,3831.0,E09000007,Camden,"717,500",00AG,Camden,694.2
2o2st News,"72 Berwick St, London",51.5147633,-0.1360655,0.0,Westminster,264,3857.0,E09000033,Westminster,"1,070,000",00BK,Westminster,771.6
wornwell vintage clothing,"Oxford St, London",51.5165812,-0.1311655,0.0,Westminster,265,3857.0,E09000033,Westminster,"1,070,000",00BK,Westminster,771.6
Nikita Sablier,"79 George St, London",51.5171123,-0.1568565,0.0,Westminster,266,3857.0,E09000033,Westminster,"1,070,000",00BK,Westminster,771.6
De L'Époque,"8 Cheval Pl, London",51.49900359999999,-0.1667621,5.0,Westminster,267,3857.0,E09000033,Westminster,"1,070,000",00BK,Westminster,771.6
All Loved Up Boutique,"All Loved Up Boutique, 91 Charlwood St, London",51.4880187,-0.1412302,5.0,Westminster,268,3857.0,E09000033,Westminster,"1,070,000",00BK,Westminster,771.6
Clerkenwell Vintage Fashion Fair,"38-51 Bedford Way, London",51.5234685,-0.1273138,0.0,Camden,269,3831.0,E09000007,Camden,"717,500",00AG,Camden,694.2
Open for Vintage,"7, 10 Cavendish Square, Chandos St, London",51.5169544,-0.1442532,5.0,Westminster,270,3857.0,E09000033,Westminster,"1,070,000",00BK,Westminster,771.6
Dukes Cupboard Limited,"14 Ingestre Pl, London",51.5132008,-0.1357614,4.3,Westminster,271,3857.0,E09000033,Westminster,"1,070,000",00BK,Westminster,771.6
Vintage Stockroom,"13 - 25 Church St, London",51.524127,-0.1688328,0.0,Westminster,272,3857.0,E09000033,Westminster,"1,070,000",00BK,Westminster,771.6
pillowHeat,"Vans Store, 47 Carnaby St, London",51.5128206,-0.1386783,4.9,Westminster,273,3857.0,E09000033,Westminster,"1,070,000",00BK,Westminster,771.6
Good,"180 Queensway, London",51.51557,-0.1880176,5.0,Westminster,274,3857.0,E09000033,Westminster,"1,070,000",00BK,Westminster,771.6
Linda Bee,"Alfie’s Antique Market, 13 - 25 Church St, London",51.5241887,-0.1688101,3.7,Westminster,275,3857.0,E09000033,Westminster,"1,070,000",00BK,Westminster,771.6
SOMLO - London & OMEGA Vintage,"35-36 Burlington Arcade, London",51.509631,-0.14092,4.5,Westminster,276,3857.0,E09000033,Westminster,"1,070,000",00BK,Westminster,771.6
Gillian Horsup,"Alfies Antiques, Alfies Antique Market, 13-25 Church St, London",51.5241887,-0.1688101,5.0,Westminster,277,3857.0,E09000033,Westminster,"1,070,000",00BK,Westminster,771.6
American Vintage,"35 Marylebone High St, London",51.5205091,-0.151705,3.4,Westminster,278,3857.0,E09000033,Westminster,"1,070,000",00BK,Westminster,771.6
Grays Antique Market,"58 Davies St, London",51.5137017,-0.1486451,4.1,Westminster,279,3857.0,E09000033,Westminster,"1,070,000",00BK,Westminster,771.6
Arabella Bianco,"13-25 Church St, London",51.5241255,-0.1688334,5.0,Westminster,280,3857.0,E09000033,Westminster,"1,070,000",00BK,Westminster,771.6
Sign of the Times,"5 Elystan St, London",51.490966,-0.1667517,4.3,Kensington and Chelsea,281,3844.0,E09000020,Kensington and Chelsea,"1,200,000",00AW,Kensington and Chelsea,767
ANTIQUES,London,51.5122569,-0.1546661,4.8,Westminster,282,3857.0,E09000033,Westminster,"1,070,000",00BK,Westminster,771.6
Retro Living,"7A Church St, London",51.5244864,-0.1685567,5.0,Westminster,283,3857.0,E09000033,Westminster,"1,070,000",00BK,Westminster,771.6
Alfies Antique Market,"13 - 25 Church St, London",51.5241255,-0.1688334,4.3,Westminster,284,3857.0,E09000033,Westminster,"1,070,000",00BK,Westminster,771.6
The Vintage House,"42 Old Compton St, London",51.5131282,-0.1316389,4.1,Westminster,285,3857.0,E09000033,Westminster,"1,070,000",00BK,Westminster,771.6
Pop Up 38,"18 Broadwick St, London",51.5138414,-0.1354232,5.0,Westminster,286,3857.0,E09000033,Westminster,"1,070,000",00BK,Westminster,771.6
Beyond Retro Soho,"19-21 Argyll St, London",51.5150107,-0.1411872,4.3,Westminster,287,3857.0,E09000033,Westminster,"1,070,000",00BK,Westminster,771.6
PICKNWEIGHT - VINTAGE KILO STORE,"14-18 Neal St, London",51.5138476,-0.1248029,3.6,Westminster,288,3857.0,E09000033,Westminster,"1,070,000",00BK,Westminster,771.6
Reign Vintage,"12 Berwick St, London",51.51340130000001,-0.1345882,4.3,Westminster,289,3857.0,E09000033,Westminster,"1,070,000",00BK,Westminster,771.6
Wow Retro London Covent Garden,"179 Drury Ln, London",51.51564699999999,-0.1234713,4.3,Camden,290,3831.0,E09000007,Camden,"717,500",00AG,Camden,694.2
Blackout II - Vintage Clothing London,"51 Endell St, London",51.5148867,-0.125315,3.9,Camden,291,3831.0,E09000007,Camden,"717,500",00AG,Camden,694.2
Vintage Threads,"69 Neal St, London",51.51494020000001,-0.1266051,4.3,Camden,292,3831.0,E09000007,Camden,"717,500",00AG,Camden,694.2
Pop Boutique,"30 Short's Gardens, London",51.5144586,-0.1254132,4.1,Camden,293,3831.0,E09000007,Camden,"717,500",00AG,Camden,694.2
Goldsmith Vintage,"121, 123 Charing Cross Rd, London",51.5149524,-0.1301147,4.2,Westminster,294,3857.0,E09000033,Westminster,"1,070,000",00BK,Westminster,771.6
Rokit Covent Garden,"42 Shelton St, London",51.5140748,-0.1244384,4.2,Westminster,295,3857.0,E09000033,Westminster,"1,070,000",00BK,Westminster,771.6
goldsmith vintage,"57 Neal St, London",51.51476760000001,-0.1263361,3.4,Camden,296,3831.0,E09000007,Camden,"717,500",00AG,Camden,694.2
The Vintage Collection,"Arch 59, Camden Stables Market, London",51.5420455,-0.1469688,5.0,Camden,297,3831.0,E09000007,Camden,"717,500",00AG,Camden,694.2
Beyond Retro Coal Drops,"Unit 79-81, Coal Drops Yard, London",51.5365259,-0.1259221,4.0,Camden,298,3831.0,E09000007,Camden,"717,500",00AG,Camden,694.2
Rokit Camden,"225 Camden High St, London",51.5398923,-0.143589,4.1,Camden,299,3831.0,E09000007,Camden,"717,500",00AG,Camden,694.2
Past Trash,"38 Neal St, London",51.5143694,-0.1253947,4.7,Camden,300,3831.0,E09000007,Camden,"717,500",00AG,Camden,694.2
Wings Vintage,"105A Euston St., London",51.526494,-0.1363579,4.0,Camden,301,3831.0,E09000007,Camden,"717,500",00AG,Camden,694.2
St Cyr Vintage,"56 Saddle Row Camden Market, London",51.5421391,-0.1483749,4.3,Camden,302,3831.0,E09000007,Camden,"717,500",00AG,Camden,694.2
Berty and Gerty Vintage,"53 Camden Lock Pl, London",51.5413907,-0.1465884,0.0,Camden,303,3831.0,E09000007,Camden,"717,500",00AG,Camden,694.2
What Goes Around Comes Around,"Unit 32, The Stables Market Chalk, Farm Road, London",51.5420969,-0.1466583,3.9,Camden,304,3831.0,E09000007,Camden,"717,500",00AG,Camden,694.2
Camden Threads - An online shop for the best independent brands and vintage boutiques,"44A Camden Lock Pl, London",51.5414567,-0.1463852,0.0,Camden,305,3831.0,E09000007,Camden,"717,500",00AG,Camden,694.2
Dunno. Curated,"8 Berwick St, London",51.5132162,-0.134507,4.7,Westminster,306,3857.0,E09000033,Westminster,"1,070,000",00BK,Westminster,771.6
Gong Nong Bing Vintage,"68 Charing Cross Rd, London",51.5124053,-0.1284323,5.0,Westminster,307,3857.0,E09000033,Westminster,"1,070,000",00BK,Westminster,771.6
Dream Retro,"2nd Floor, Alfies Antiques Market, 13- 25 Church St, London",51.5241887,-0.1688101,0.0,Westminster,308,3857.0,E09000033,Westminster,"1,070,000",00BK,Westminster,771.6
Vintage Modes,"Alfies Antique Market, Church St, London",51.5241887,-0.1688101,0.0,Westminster,309,3857.0,E09000033,Westminster,"1,070,000",00BK,Westminster,771.6
COW Vintage,"13 Short's Gardens, London",51.5141663,-0.126386,3.7,Camden,310,3831.0,E09000007,Camden,"717,500",00AG,Camden,694.2
Funkytownshop,"Ground Floor, 232 Camden High St, London",51.5409704,-0.1443065,3.3,Camden,311,3831.0,E09000007,Camden,"717,500",00AG,Camden,694.2
OuterLimitz Vintage,"12B, Camden Stables Market, Chalk Farm Rd, London",51.5420455,-0.1469688,0.0,Camden,312,3831.0,E09000007,Camden,"717,500",00AG,Camden,694.2
Modern Age Vintage Clothing,"65 Chalk Farm Rd, London",51.5433049,-0.1503682,3.3,Camden,313,3831.0,E09000007,Camden,"717,500",00AG,Camden,694.2
LanaTS Clothing,"55 Baker St, London",51.5187355,-0.1567089,0.0,Westminster,314,3857.0,E09000033,Westminster,"1,070,000",00BK,Westminster,771.6
OOTO LONDON,"Claridge House, 32 Davies St, London",51.512012,-0.1477862,0.0,Westminster,315,3857.0,E09000033,Westminster,"1,070,000",00BK,Westminster,771.6
Vintage Clothing,"42 Shelton St, London",51.5140221,-0.1245663,5.0,Westminster,316,3857.0,E09000033,Westminster,"1,070,000",00BK,Westminster,771.6
Eddie Wailes Studio,"13 - 25 Church St, London",51.52421589999999,-0.1688751,0.0,Westminster,317,3857.0,E09000033,Westminster,"1,070,000",00BK,Westminster,771.6
A Dandy In Aspic,"Market, 748-749, North Yard Stables, Chalk Farm Rd, London",51.5425015,-0.1490213,3.4,Camden,318,3831.0,E09000007,Camden,"717,500",00AG,Camden,694.2
Good,"33 Neal St, London",51.5142216,-0.1256036,5.0,Camden,319,3831.0,E09000007,Camden,"717,500",00AG,Camden,694.2
2o2st News,"72 Berwick St, London",51.5147633,-0.1360655,0.0,Westminster,320,3857.0,E09000033,Westminster,"1,070,000",00BK,Westminster,771.6
wornwell vintage clothing,"Oxford St, London",51.5165812,-0.1311655,0.0,Westminster,321,3857.0,E09000033,Westminster,"1,070,000",00BK,Westminster,771.6
DreamingLion Vintage,"Unit D28, Horse Tunnel, The Stables Market, Chalk Farm Rd, London",51.5420455,-0.1469688,4.5,Camden,322,3831.0,E09000007,Camden,"717,500",00AG,Camden,694.2
SK.Vintage,"51 Fortess Rd, London",51.5539851,-0.1406663,4.5,Camden,323,3831.0,E09000007,Camden,"717,500",00AG,Camden,694.2
Clerkenwell Vintage Fashion Fair,"38-51 Bedford Way, London",51.5234685,-0.1273138,0.0,Camden,324,3831.0,E09000007,Camden,"717,500",00AG,Camden,694.2
Open for Vintage,"7, 10 Cavendish Square, Chandos St, London",51.5169544,-0.1442532,5.0,Westminster,325,3857.0,E09000033,Westminster,"1,070,000",00BK,Westminster,771.6
Dukes Cupboard Limited,"14 Ingestre Pl, London",51.5132008,-0.1357614,4.3,Westminster,326,3857.0,E09000033,Westminster,"1,070,000",00BK,Westminster,771.6
Vintage Stockroom,"13 - 25 Church St, London",51.524127,-0.1688328,0.0,Westminster,327,3857.0,E09000033,Westminster,"1,070,000",00BK,Westminster,771.6
pillowHeat,"Vans Store, 47 Carnaby St, London",51.5128206,-0.1386783,4.9,Westminster,328,3857.0,E09000033,Westminster,"1,070,000",00BK,Westminster,771.6
Good,"180 Queensway, London",51.51557,-0.1880176,5.0,Westminster,329,3857.0,E09000033,Westminster,"1,070,000",00BK,Westminster,771.6
Linda Bee,"Alfie’s Antique Market, 13 - 25 Church St, London",51.5241887,-0.1688101,3.7,Westminster,330,3857.0,E09000033,Westminster,"1,070,000",00BK,Westminster,771.6
Gillian Horsup,"Alfies Antiques, Alfies Antique Market, 13-25 Church St, London",51.5241887,-0.1688101,5.0,Westminster,331,3857.0,E09000033,Westminster,"1,070,000",00BK,Westminster,771.6
The Grandad Company,"47, London",51.5378699,-0.1154254,5.0,Islington,332,3843.0,E09000019,Islington,"625,000",00AU,Islington,665.6
SoSo Retro,"Unit 527, The Stables Market, Chalk Farm Rd, London",51.5420455,-0.1469688,5.0,Camden,333,3831.0,E09000007,Camden,"717,500",00AG,Camden,694.2
American Vintage,"35 Marylebone High St, London",51.5205091,-0.151705,3.4,Westminster,334,3857.0,E09000033,Westminster,"1,070,000",00BK,Westminster,771.6
Grays Antique Market,"58 Davies St, London",51.5137017,-0.1486451,4.1,Westminster,335,3857.0,E09000033,Westminster,"1,070,000",00BK,Westminster,771.6
Peekaboo Vintage Marketplace,"149a Abbey Rd, London",51.540942,-0.1910264,5.0,Camden,336,3831.0,E09000007,Camden,"717,500",00AG,Camden,694.2
American Vintage,"Stable St, London",51.535973,-0.126182,3.4,Camden,337,3831.0,E09000007,Camden,"717,500",00AG,Camden,694.2
SOMLO - London & OMEGA Vintage,"35-36 Burlington Arcade, London",51.509631,-0.14092,4.5,Westminster,338,3857.0,E09000033,Westminster,"1,070,000",00BK,Westminster,771.6
Collectif Camden Market,"36, Camden's Stables Market, Chalk Farm Rd, London",51.54222439999999,-0.1469208,4.7,Camden,339,3831.0,E09000007,Camden,"717,500",00AG,Camden,694.2
Exclusive,"2 Flask Walk, London",51.55638070000001,-0.1776995,2.5,Camden,340,3831.0,E09000007,Camden,"717,500",00AG,Camden,694.2
Vintage Clothing,"53 Chalk Farm Rd, London",51.5430371,-0.1501184,0.0,Camden,341,3831.0,E09000007,Camden,"717,500",00AG,Camden,694.2
Arabella Bianco,"13-25 Church St, London",51.5241255,-0.1688334,5.0,Westminster,342,3857.0,E09000033,Westminster,"1,070,000",00BK,Westminster,771.6
Camden Retro Signs,"8A, The Stables Market, PADDOCK LANE, Chalk Farm Rd, London",51.5420455,-0.1469688,5.0,Camden,343,3831.0,E09000007,Camden,"717,500",00AG,Camden,694.2
ANTIQUES,London,51.5122569,-0.1546661,4.8,Westminster,344,3857.0,E09000033,Westminster,"1,070,000",00BK,Westminster,771.6
Retro Living,"7A Church St, London",51.5244864,-0.1685567,5.0,Westminster,345,3857.0,E09000033,Westminster,"1,070,000",00BK,Westminster,771.6
Alfies Antique Market,"13 - 25 Church St, London",51.5241255,-0.1688334,4.3,Westminster,346,3857.0,E09000033,Westminster,"1,070,000",00BK,Westminster,771.6
The Vintage Collection,"Arch 59, Camden Stables Market, London",51.5420455,-0.1469688,5.0,Camden,347,3831.0,E09000007,Camden,"717,500",00AG,Camden,694.2
Beyond Retro Coal Drops,"Unit 79-81, Coal Drops Yard, London",51.5365259,-0.1259221,4.0,Camden,348,3831.0,E09000007,Camden,"717,500",00AG,Camden,694.2
Rokit Camden,"225 Camden High St, London",51.5398923,-0.143589,4.1,Camden,349,3831.0,E09000007,Camden,"717,500",00AG,Camden,694.2
St Cyr Vintage,"56 Saddle Row Camden Market, London",51.5421391,-0.1483749,4.3,Camden,350,3831.0,E09000007,Camden,"717,500",00AG,Camden,694.2
Berty and Gerty Vintage,"53 Camden Lock Pl, London",51.5413907,-0.1465884,0.0,Camden,351,3831.0,E09000007,Camden,"717,500",00AG,Camden,694.2
What Goes Around Comes Around,"Unit 32, The Stables Market Chalk, Farm Road, London",51.5420969,-0.1466583,3.9,Camden,352,3831.0,E09000007,Camden,"717,500",00AG,Camden,694.2
Camden Threads - An online shop for the best independent brands and vintage boutiques,"44A Camden Lock Pl, London",51.5414567,-0.1463852,0.0,Camden,353,3831.0,E09000007,Camden,"717,500",00AG,Camden,694.2
Funkytownshop,"Ground Floor, 232 Camden High St, London",51.5409704,-0.1443065,3.3,Camden,354,3831.0,E09000007,Camden,"717,500",00AG,Camden,694.2
OuterLimitz Vintage,"12B, Camden Stables Market, Chalk Farm Rd, London",51.5420455,-0.1469688,0.0,Camden,355,3831.0,E09000007,Camden,"717,500",00AG,Camden,694.2
Modern Age Vintage Clothing,"65 Chalk Farm Rd, London",51.5433049,-0.1503682,3.3,Camden,356,3831.0,E09000007,Camden,"717,500",00AG,Camden,694.2
Resurrection Boutique,"3, Archway Close, 3 Archway Rd, London",51.5657346,-0.134374,4.2,Islington,357,3843.0,E09000019,Islington,"625,000",00AU,Islington,665.6
A Dandy In Aspic,"Market, 748-749, North Yard Stables, Chalk Farm Rd, London",51.5425015,-0.1490213,3.4,Camden,358,3831.0,E09000007,Camden,"717,500",00AG,Camden,694.2
Svarelle,London,51.56526030000001,-0.1196879,0.0,Islington,359,3843.0,E09000019,Islington,"625,000",00AU,Islington,665.6
Exclusive,"2 Flask Walk, London",51.55638070000001,-0.1776995,2.5,Camden,360,3831.0,E09000007,Camden,"717,500",00AG,Camden,694.2
DreamingLion Vintage,"Unit D28, Horse Tunnel, The Stables Market, Chalk Farm Rd, London",51.5420455,-0.1469688,4.5,Camden,361,3831.0,E09000007,Camden,"717,500",00AG,Camden,694.2
SK.Vintage,"51 Fortess Rd, London",51.5539851,-0.1406663,4.5,Camden,362,3831.0,E09000007,Camden,"717,500",00AG,Camden,694.2
Arts And Vintage,"263 Archway Rd, London",51.5762988,-0.1442271,4.8,Haringey,363,3838.0,E09000014,Haringey,"487,500",00AP,Haringey,542.6
The Grandad Company,"47, London",51.5378699,-0.1154254,5.0,Islington,364,3843.0,E09000019,Islington,"625,000",00AU,Islington,665.6
Peekaboo Vintage Marketplace,"149a Abbey Rd, London",51.540942,-0.1910264,5.0,Camden,365,3831.0,E09000007,Camden,"717,500",00AG,Camden,694.2
American Vintage,"Stable St, London",51.535973,-0.126182,3.4,Camden,366,3831.0,E09000007,Camden,"717,500",00AG,Camden,694.2
Collectif Camden Market,"36, Camden's Stables Market, Chalk Farm Rd, London",51.54222439999999,-0.1469208,4.7,Camden,367,3831.0,E09000007,Camden,"717,500",00AG,Camden,694.2
Alpha Vintage Store,"Hornsey Rd, London",51.55952120000001,-0.1144241,0.0,Islington,368,3843.0,E09000019,Islington,"625,000",00AU,Islington,665.6
Vintage Clothing,"53 Chalk Farm Rd, London",51.5430371,-0.1501184,0.0,Camden,369,3831.0,E09000007,Camden,"717,500",00AG,Camden,694.2
Camden Retro Signs,"8A, The Stables Market, PADDOCK LANE, Chalk Farm Rd, London",51.5420455,-0.1469688,5.0,Camden,370,3831.0,E09000007,Camden,"717,500",00AG,Camden,694.2
rollos vintage furniture,"391 Archway Rd, London",51.5783701,-0.1490951,5.0,Haringey,371,3838.0,E09000014,Haringey,"487,500",00AP,Haringey,542.6
Roomscape,"In, Belmont St, London",51.54479000000001,-0.1512781,0.0,Camden,372,3831.0,E09000007,Camden,"717,500",00AG,Camden,694.2
Camden Thrift Store,"51 Chalk Farm Rd, London",51.543116,-0.1494112,4.5,Camden,373,3831.0,E09000007,Camden,"717,500",00AG,Camden,694.2
Gonnermann,"408-410 Archway Rd, London",51.5766188,-0.1441633,4.9,Haringey,374,3838.0,E09000014,Haringey,"487,500",00AP,Haringey,542.6
Aladdin's Vintage Furniture & Cafe,"1 Hazellville Rd, London",51.5695455,-0.1243871,4.7,Islington,375,3843.0,E09000019,Islington,"625,000",00AU,Islington,665.6
Vintage Luggage,"18 Delancey St, London",51.5368475,-0.1426188,4.2,Camden,376,3831.0,E09000007,Camden,"717,500",00AG,Camden,694.2
Antique Kelims,"Highgate Rd, London",51.5529237,-0.1420899,0.0,Camden,377,3831.0,E09000007,Camden,"717,500",00AG,Camden,694.2
Traid Camden,"154 Camden High St, London",51.5385937,-0.1421116,3.7,Camden,378,3831.0,E09000007,Camden,"717,500",00AG,Camden,694.2
Vivien of Holloway,"294 Holloway Rd, London",51.55451430000001,-0.1142869,4.4,Islington,379,3843.0,E09000019,Islington,"625,000",00AU,Islington,665.6
Little Paris Store,"39 Park Rd, London",51.580974,-0.125502,4.5,Haringey,380,3838.0,E09000014,Haringey,"487,500",00AP,Haringey,542.6
Episode,"26 Chalk Farm Rd, London",51.542509,-0.146978,0.0,Camden,381,3831.0,E09000007,Camden,"717,500",00AG,Camden,694.2
CIRCA VINTAGE,"87a Lansdowne Way, London",51.4748348,-0.1286932,4.7,Lambeth,382,3846.0,E09000022,Lambeth,"510,000",00AY,Lambeth,673.6
TTFN Vintage,"106-108 Denmark Hill, London",51.4709291,-0.0930882,5.0,Lambeth,383,3846.0,E09000022,Lambeth,"510,000",00AY,Lambeth,673.6
Leona,"Brixton Village, Unit 5 Coldharbour Ln, London",51.4621557,-0.1114804,5.0,Lambeth,384,3846.0,E09000022,Lambeth,"510,000",00AY,Lambeth,673.6
Vintage80scasuals,"Unit 63, 105 Culvert Rd, London",51.47090439999999,-0.1566805,0.0,Wandsworth,385,3856.0,E09000032,Wandsworth,"640,000",00BJ,Wandsworth,746.7
Rejuvenate - Something for everyone,"41-42 Coldharbour Ln, London",51.4625934,-0.1116695,0.0,Lambeth,386,3846.0,E09000022,Lambeth,"510,000",00AY,Lambeth,673.6
Bella West,"Granville Arcade, Unit 76 Coldharbour Ln, London",51.4624417,-0.1118706,3.7,Lambeth,387,3846.0,E09000022,Lambeth,"510,000",00AY,Lambeth,673.6
Eclectica (Clapham),"803 Wandsworth Rd, London",51.4665809,-0.1484604,4.9,Lambeth,388,3846.0,E09000022,Lambeth,"510,000",00AY,Lambeth,673.6
My Vintage J Box,"58 Streatham High Rd, London",51.4367663,-0.1280156,5.0,Lambeth,389,3846.0,E09000022,Lambeth,"510,000",00AY,Lambeth,673.6
NewVintage.co.uk,"256 Battersea Park Rd, London",51.4720756,-0.1661966,4.1,Wandsworth,390,3856.0,E09000032,Wandsworth,"640,000",00BJ,Wandsworth,746.7
Morbleu,"135 Dulwich Rd, London",51.4526729,-0.1027664,4.4,Lambeth,391,3846.0,E09000022,Lambeth,"510,000",00AY,Lambeth,673.6
Eccles Road Antiques,"60 Eccles Rd, London",51.46180829999999,-0.1634526,4.9,Wandsworth,392,3856.0,E09000032,Wandsworth,"640,000",00BJ,Wandsworth,746.7
Northcote Road Antiques Market,"155a Northcote Rd, London",51.455341,-0.1645277,4.4,Wandsworth,393,3856.0,E09000032,Wandsworth,"640,000",00BJ,Wandsworth,746.7
Vintage Chairs,"25 Gubyon Ave, London",51.4554139,-0.102013,0.0,Lambeth,394,3846.0,E09000022,Lambeth,"510,000",00AY,Lambeth,673.6
Traid,"2 Acre Ln, London",51.4612282,-0.1162417,4.1,Lambeth,395,3846.0,E09000022,Lambeth,"510,000",00AY,Lambeth,673.6
Loved again Ltd.,"140 Stockwell Rd, London",51.4673937,-0.1182007,5.0,Lambeth,396,3846.0,E09000022,Lambeth,"510,000",00AY,Lambeth,673.6
Retro Furniture & Services,"338 Balham High Rd, London",51.4358639,-0.1596233,5.0,Wandsworth,397,3856.0,E09000032,Wandsworth,"640,000",00BJ,Wandsworth,746.7
Saluto London,"Battersea Business Centre, London",51.4650292,-0.1549833,5.0,Wandsworth,398,3856.0,E09000032,Wandsworth,"640,000",00BJ,Wandsworth,746.7
CIRCA VINTAGE,"87a Lansdowne Way, London",51.4748348,-0.1286932,4.7,Lambeth,399,3846.0,E09000022,Lambeth,"510,000",00AY,Lambeth,673.6
TTFN Vintage,"106-108 Denmark Hill, London",51.4709291,-0.0930882,5.0,Lambeth,400,3846.0,E09000022,Lambeth,"510,000",00AY,Lambeth,673.6
Retromania Fara London,"6 Upper Tachbrook St, London",51.4933772,-0.1399568,4.3,Westminster,401,3857.0,E09000033,Westminster,"1,070,000",00BK,Westminster,771.6
Leona,"Brixton Village, Unit 5 Coldharbour Ln, London",51.4621557,-0.1114804,5.0,Lambeth,402,3846.0,E09000022,Lambeth,"510,000",00AY,Lambeth,673.6
Vintage80scasuals,"Unit 63, 105 Culvert Rd, London",51.47090439999999,-0.1566805,0.0,Wandsworth,403,3856.0,E09000032,Wandsworth,"640,000",00BJ,Wandsworth,746.7
Rejuvenate - Something for everyone,"41-42 Coldharbour Ln, London",51.4625934,-0.1116695,0.0,Lambeth,404,3846.0,E09000022,Lambeth,"510,000",00AY,Lambeth,673.6
Bella West,"Granville Arcade, Unit 76 Coldharbour Ln, London",51.4624417,-0.1118706,3.7,Lambeth,405,3846.0,E09000022,Lambeth,"510,000",00AY,Lambeth,673.6
Eclectica (Clapham),"803 Wandsworth Rd, London",51.4665809,-0.1484604,4.9,Lambeth,406,3846.0,E09000022,Lambeth,"510,000",00AY,Lambeth,673.6
All Loved Up Boutique,"All Loved Up Boutique, 91 Charlwood St, London",51.4880187,-0.1412302,5.0,Westminster,407,3857.0,E09000033,Westminster,"1,070,000",00BK,Westminster,771.6
livewithfashion,"Alpha House, 100 Borough High St, London",51.5032218,-0.0919688999999999,0.0,Southwark,408,3852.0,E09000028,Southwark,"520,000",00BE,Southwark,631.9
Academy Vintage Repro,"229 Waterloo Rd, London",51.4998143,-0.1068619,0.0,Southwark,409,3852.0,E09000028,Southwark,"520,000",00BE,Southwark,631.9
Chelsea Vintage Couture,"Office - Showroom, BY APPOINTMENT ONLY, Sloane Ave, London",51.4924574,-0.1659658,4.7,Kensington and Chelsea,410,3844.0,E09000020,Kensington and Chelsea,"1,200,000",00AW,Kensington and Chelsea,767
De L'Époque,"8 Cheval Pl, London",51.49900359999999,-0.1667621,5.0,Westminster,411,3857.0,E09000033,Westminster,"1,070,000",00BK,Westminster,771.6
NewVintage.co.uk,"256 Battersea Park Rd, London",51.4720756,-0.1661966,4.1,Wandsworth,412,3856.0,E09000032,Wandsworth,"640,000",00BJ,Wandsworth,746.7
Eccles Road Antiques,"60 Eccles Rd, London",51.46180829999999,-0.1634526,4.9,Wandsworth,413,3856.0,E09000032,Wandsworth,"640,000",00BJ,Wandsworth,746.7
Butterworth Christopher,"71 Pimlico Rd, London",51.490362,-0.1535057,3.7,Westminster,414,3857.0,E09000033,Westminster,"1,070,000",00BK,Westminster,771.6
Beyond Retro Soho,"19-21 Argyll St, London",51.5150107,-0.1411872,4.3,Westminster,415,3857.0,E09000033,Westminster,"1,070,000",00BK,Westminster,771.6
PICKNWEIGHT - VINTAGE KILO STORE,"14-18 Neal St, London",51.5138476,-0.1248029,3.6,Westminster,416,3857.0,E09000033,Westminster,"1,070,000",00BK,Westminster,771.6
Reign Vintage,"12 Berwick St, London",51.51340130000001,-0.1345882,4.3,Westminster,417,3857.0,E09000033,Westminster,"1,070,000",00BK,Westminster,771.6
Wow Retro London Covent Garden,"179 Drury Ln, London",51.51564699999999,-0.1234713,4.3,Camden,418,3831.0,E09000007,Camden,"717,500",00AG,Camden,694.2
Blackout II - Vintage Clothing London,"51 Endell St, London",51.5148867,-0.125315,3.9,Camden,419,3831.0,E09000007,Camden,"717,500",00AG,Camden,694.2
Vintage Threads,"69 Neal St, London",51.51494020000001,-0.1266051,4.3,Camden,420,3831.0,E09000007,Camden,"717,500",00AG,Camden,694.2
Pop Boutique,"30 Short's Gardens, London",51.5144586,-0.1254132,4.1,Camden,421,3831.0,E09000007,Camden,"717,500",00AG,Camden,694.2
Goldsmith Vintage,"121, 123 Charing Cross Rd, London",51.5149524,-0.1301147,4.2,Westminster,422,3857.0,E09000033,Westminster,"1,070,000",00BK,Westminster,771.6
Rokit Covent Garden,"42 Shelton St, London",51.5140748,-0.1244384,4.2,Westminster,423,3857.0,E09000033,Westminster,"1,070,000",00BK,Westminster,771.6
goldsmith vintage,"57 Neal St, London",51.51476760000001,-0.1263361,3.4,Camden,424,3831.0,E09000007,Camden,"717,500",00AG,Camden,694.2
Past Trash,"38 Neal St, London",51.5143694,-0.1253947,4.7,Camden,425,3831.0,E09000007,Camden,"717,500",00AG,Camden,694.2
Wings Vintage,"105A Euston St., London",51.526494,-0.1363579,4.0,Camden,426,3831.0,E09000007,Camden,"717,500",00AG,Camden,694.2
Retromania Fara London,"6 Upper Tachbrook St, London",51.4933772,-0.1399568,4.3,Westminster,427,3857.0,E09000033,Westminster,"1,070,000",00BK,Westminster,771.6
Dunno. Curated,"8 Berwick St, London",51.5132162,-0.134507,4.7,Westminster,428,3857.0,E09000033,Westminster,"1,070,000",00BK,Westminster,771.6
Gong Nong Bing Vintage,"68 Charing Cross Rd, London",51.5124053,-0.1284323,5.0,Westminster,429,3857.0,E09000033,Westminster,"1,070,000",00BK,Westminster,771.6
COW Vintage,"13 Short's Gardens, London",51.5141663,-0.126386,3.7,Camden,430,3831.0,E09000007,Camden,"717,500",00AG,Camden,694.2
Pennies Vintage,"41A Amwell St, London",51.5292864,-0.1104796,4.7,Islington,431,3843.0,E09000019,Islington,"625,000",00AU,Islington,665.6
LanaTS Clothing,"55 Baker St, London",51.5187355,-0.1567089,0.0,Westminster,432,3857.0,E09000033,Westminster,"1,070,000",00BK,Westminster,771.6
OOTO LONDON,"Claridge House, 32 Davies St, London",51.512012,-0.1477862,0.0,Westminster,433,3857.0,E09000033,Westminster,"1,070,000",00BK,Westminster,771.6
Vintage Clothing,"42 Shelton St, London",51.5140221,-0.1245663,5.0,Westminster,434,3857.0,E09000033,Westminster,"1,070,000",00BK,Westminster,771.6
Hartex,"Unit 9, Gabriels Wharf, 56 Upper Ground, London",51.5079685,-0.1103793,4.7,Lambeth,435,3846.0,E09000022,Lambeth,"510,000",00AY,Lambeth,673.6
Good,"33 Neal St, London",51.5142216,-0.1256036,5.0,Camden,436,3831.0,E09000007,Camden,"717,500",00AG,Camden,694.2
2o2st News,"72 Berwick St, London",51.5147633,-0.1360655,0.0,Westminster,437,3857.0,E09000033,Westminster,"1,070,000",00BK,Westminster,771.6
wornwell vintage clothing,"Oxford St, London",51.5165812,-0.1311655,0.0,Westminster,438,3857.0,E09000033,Westminster,"1,070,000",00BK,Westminster,771.6
All Loved Up Boutique,"All Loved Up Boutique, 91 Charlwood St, London",51.4880187,-0.1412302,5.0,Westminster,439,3857.0,E09000033,Westminster,"1,070,000",00BK,Westminster,771.6
Clerkenwell Vintage Fashion Fair,"38-51 Bedford Way, London",51.5234685,-0.1273138,0.0,Camden,440,3831.0,E09000007,Camden,"717,500",00AG,Camden,694.2
Open for Vintage,"7, 10 Cavendish Square, Chandos St, London",51.5169544,-0.1442532,5.0,Westminster,441,3857.0,E09000033,Westminster,"1,070,000",00BK,Westminster,771.6
Dukes Cupboard Limited,"14 Ingestre Pl, London",51.5132008,-0.1357614,4.3,Westminster,442,3857.0,E09000033,Westminster,"1,070,000",00BK,Westminster,771.6
livewithfashion,"Alpha House, 100 Borough High St, London",51.5032218,-0.0919688999999999,0.0,Southwark,443,3852.0,E09000028,Southwark,"520,000",00BE,Southwark,631.9
pillowHeat,"Vans Store, 47 Carnaby St, London",51.5128206,-0.1386783,4.9,Westminster,444,3857.0,E09000033,Westminster,"1,070,000",00BK,Westminster,771.6
Academy Vintage Repro,"229 Waterloo Rd, London",51.4998143,-0.1068619,0.0,Southwark,445,3852.0,E09000028,Southwark,"520,000",00BE,Southwark,631.9
SOMLO - London & OMEGA Vintage,"35-36 Burlington Arcade, London",51.509631,-0.14092,4.5,Westminster,446,3857.0,E09000033,Westminster,"1,070,000",00BK,Westminster,771.6
Chelsea Vintage Couture,"Office - Showroom, BY APPOINTMENT ONLY, Sloane Ave, London",51.4924574,-0.1659658,4.7,Kensington and Chelsea,447,3844.0,E09000020,Kensington and Chelsea,"1,200,000",00AW,Kensington and Chelsea,767
American Vintage,"35 Marylebone High St, London",51.5205091,-0.151705,3.4,Westminster,448,3857.0,E09000033,Westminster,"1,070,000",00BK,Westminster,771.6
Grays Antique Market,"58 Davies St, London",51.5137017,-0.1486451,4.1,Westminster,449,3857.0,E09000033,Westminster,"1,070,000",00BK,Westminster,771.6
De L'Époque,"8 Cheval Pl, London",51.49900359999999,-0.1667621,5.0,Westminster,450,3857.0,E09000033,Westminster,"1,070,000",00BK,Westminster,771.6
ANTIQUES,London,51.5122569,-0.1546661,4.8,Westminster,451,3857.0,E09000033,Westminster,"1,070,000",00BK,Westminster,771.6
The Vintage House,"42 Old Compton St, London",51.5131282,-0.1316389,4.1,Westminster,452,3857.0,E09000033,Westminster,"1,070,000",00BK,Westminster,771.6
Butterworth Christopher,"71 Pimlico Rd, London",51.490362,-0.1535057,3.7,Westminster,453,3857.0,E09000033,Westminster,"1,070,000",00BK,Westminster,771.6
Beyond Retro Soho,"19-21 Argyll St, London",51.5150107,-0.1411872,4.3,Westminster,454,3857.0,E09000033,Westminster,"1,070,000",00BK,Westminster,771.6
PICKNWEIGHT - VINTAGE KILO STORE,"14-18 Neal St, London",51.5138476,-0.1248029,3.6,Westminster,455,3857.0,E09000033,Westminster,"1,070,000",00BK,Westminster,771.6
Reign Vintage,"12 Berwick St, London",51.51340130000001,-0.1345882,4.3,Westminster,456,3857.0,E09000033,Westminster,"1,070,000",00BK,Westminster,771.6
Wow Retro London Covent Garden,"179 Drury Ln, London",51.51564699999999,-0.1234713,4.3,Camden,457,3831.0,E09000007,Camden,"717,500",00AG,Camden,694.2
Blackout II - Vintage Clothing London,"51 Endell St, London",51.5148867,-0.125315,3.9,Camden,458,3831.0,E09000007,Camden,"717,500",00AG,Camden,694.2
Blue17 Vintage clothing,"162 Ground floor & basement, London",51.5512295,-0.1101328,4.7,Islington,459,3843.0,E09000019,Islington,"625,000",00AU,Islington,665.6
Magpie Vintage,"3 Camden Psge, London",51.5345635,-0.1043199,4.7,Islington,460,3843.0,E09000019,Islington,"625,000",00AU,Islington,665.6
Vintage Threads,"69 Neal St, London",51.51494020000001,-0.1266051,4.3,Camden,461,3831.0,E09000007,Camden,"717,500",00AG,Camden,694.2
Pop Boutique,"30 Short's Gardens, London",51.5144586,-0.1254132,4.1,Camden,462,3831.0,E09000007,Camden,"717,500",00AG,Camden,694.2
Goldsmith Vintage,"121, 123 Charing Cross Rd, London",51.5149524,-0.1301147,4.2,Westminster,463,3857.0,E09000033,Westminster,"1,070,000",00BK,Westminster,771.6
Rokit Covent Garden,"42 Shelton St, London",51.5140748,-0.1244384,4.2,Westminster,464,3857.0,E09000033,Westminster,"1,070,000",00BK,Westminster,771.6
goldsmith vintage,"57 Neal St, London",51.51476760000001,-0.1263361,3.4,Camden,465,3831.0,E09000007,Camden,"717,500",00AG,Camden,694.2
The Vintage Collection,"Arch 59, Camden Stables Market, London",51.5420455,-0.1469688,5.0,Camden,466,3831.0,E09000007,Camden,"717,500",00AG,Camden,694.2
Beyond Retro Coal Drops,"Unit 79-81, Coal Drops Yard, London",51.5365259,-0.1259221,4.0,Camden,467,3831.0,E09000007,Camden,"717,500",00AG,Camden,694.2
Rokit Camden,"225 Camden High St, London",51.5398923,-0.143589,4.1,Camden,468,3831.0,E09000007,Camden,"717,500",00AG,Camden,694.2
Past Trash,"38 Neal St, London",51.5143694,-0.1253947,4.7,Camden,469,3831.0,E09000007,Camden,"717,500",00AG,Camden,694.2
Wings Vintage,"105A Euston St., London",51.526494,-0.1363579,4.0,Camden,470,3831.0,E09000007,Camden,"717,500",00AG,Camden,694.2
St Cyr Vintage,"56 Saddle Row Camden Market, London",51.5421391,-0.1483749,4.3,Camden,471,3831.0,E09000007,Camden,"717,500",00AG,Camden,694.2
Berty and Gerty Vintage,"53 Camden Lock Pl, London",51.5413907,-0.1465884,0.0,Camden,472,3831.0,E09000007,Camden,"717,500",00AG,Camden,694.2
What Goes Around Comes Around,"Unit 32, The Stables Market Chalk, Farm Road, London",51.5420969,-0.1466583,3.9,Camden,473,3831.0,E09000007,Camden,"717,500",00AG,Camden,694.2
Camden Threads - An online shop for the best independent brands and vintage boutiques,"44A Camden Lock Pl, London",51.5414567,-0.1463852,0.0,Camden,474,3831.0,E09000007,Camden,"717,500",00AG,Camden,694.2
Dunno. Curated,"8 Berwick St, London",51.5132162,-0.134507,4.7,Westminster,475,3857.0,E09000033,Westminster,"1,070,000",00BK,Westminster,771.6
Gong Nong Bing Vintage,"68 Charing Cross Rd, London",51.5124053,-0.1284323,5.0,Westminster,476,3857.0,E09000033,Westminster,"1,070,000",00BK,Westminster,771.6
COW Vintage,"13 Short's Gardens, London",51.5141663,-0.126386,3.7,Camden,477,3831.0,E09000007,Camden,"717,500",00AG,Camden,694.2
Funkytownshop,"Ground Floor, 232 Camden High St, London",51.5409704,-0.1443065,3.3,Camden,478,3831.0,E09000007,Camden,"717,500",00AG,Camden,694.2
OuterLimitz Vintage,"12B, Camden Stables Market, Chalk Farm Rd, London",51.5420455,-0.1469688,0.0,Camden,479,3831.0,E09000007,Camden,"717,500",00AG,Camden,694.2
Miniola Vintage,"65 Cross St, London",51.539392,-0.101881,0.0,Islington,480,3843.0,E09000019,Islington,"625,000",00AU,Islington,665.6
Modern Age Vintage Clothing,"65 Chalk Farm Rd, London",51.5433049,-0.1503682,3.3,Camden,481,3831.0,E09000007,Camden,"717,500",00AG,Camden,694.2
Pennies Vintage,"41A Amwell St, London",51.5292864,-0.1104796,4.7,Islington,482,3843.0,E09000019,Islington,"625,000",00AU,Islington,665.6
LanaTS Clothing,"55 Baker St, London",51.5187355,-0.1567089,0.0,Westminster,483,3857.0,E09000033,Westminster,"1,070,000",00BK,Westminster,771.6
OOTO LONDON,"Claridge House, 32 Davies St, London",51.512012,-0.1477862,0.0,Westminster,484,3857.0,E09000033,Westminster,"1,070,000",00BK,Westminster,771.6
Vintage Clothing,"42 Shelton St, London",51.5140221,-0.1245663,5.0,Westminster,485,3857.0,E09000033,Westminster,"1,070,000",00BK,Westminster,771.6
Dreamtime,"14 Pierrepoint Arcade, London",51.5345842,-0.1037696,1.0,Islington,486,3843.0,E09000019,Islington,"625,000",00AU,Islington,665.6
A Dandy In Aspic,"Market, 748-749, North Yard Stables, Chalk Farm Rd, London",51.5425015,-0.1490213,3.4,Camden,487,3831.0,E09000007,Camden,"717,500",00AG,Camden,694.2
Good,"33 Neal St, London",51.5142216,-0.1256036,5.0,Camden,488,3831.0,E09000007,Camden,"717,500",00AG,Camden,694.2
2o2st News,"72 Berwick St, London",51.5147633,-0.1360655,0.0,Westminster,489,3857.0,E09000033,Westminster,"1,070,000",00BK,Westminster,771.6
The Grandad Company,"47, London",51.5378699,-0.1154254,5.0,Islington,490,3843.0,E09000019,Islington,"625,000",00AU,Islington,665.6
wornwell vintage clothing,"Oxford St, London",51.5165812,-0.1311655,0.0,Westminster,491,3857.0,E09000033,Westminster,"1,070,000",00BK,Westminster,771.6
DreamingLion Vintage,"Unit D28, Horse Tunnel, The Stables Market, Chalk Farm Rd, London",51.5420455,-0.1469688,4.5,Camden,492,3831.0,E09000007,Camden,"717,500",00AG,Camden,694.2
SK.Vintage,"51 Fortess Rd, London",51.5539851,-0.1406663,4.5,Camden,493,3831.0,E09000007,Camden,"717,500",00AG,Camden,694.2
Clerkenwell Vintage Fashion Fair,"38-51 Bedford Way, London",51.5234685,-0.1273138,0.0,Camden,494,3831.0,E09000007,Camden,"717,500",00AG,Camden,694.2
Open for Vintage,"7, 10 Cavendish Square, Chandos St, London",51.5169544,-0.1442532,5.0,Westminster,495,3857.0,E09000033,Westminster,"1,070,000",00BK,Westminster,771.6
Dukes Cupboard Limited,"14 Ingestre Pl, London",51.5132008,-0.1357614,4.3,Westminster,496,3857.0,E09000033,Westminster,"1,070,000",00BK,Westminster,771.6
pillowHeat,"Vans Store, 47 Carnaby St, London",51.5128206,-0.1386783,4.9,Westminster,497,3857.0,E09000033,Westminster,"1,070,000",00BK,Westminster,771.6
Laura von Behr Vintage,"Canonbury Yard, Building 1, 5A, 190 New N Rd, London",51.5377403,-0.0908213,5.0,Islington,498,3843.0,E09000019,Islington,"625,000",00AU,Islington,665.6
"Camden Passage, Islington","1 Camden Psge, London",51.5346814,-0.1039732,4.3,Islington,499,3843.0,E09000019,Islington,"625,000",00AU,Islington,665.6
American Vintage,"35 Marylebone High St, London",51.5205091,-0.151705,3.4,Westminster,500,3857.0,E09000033,Westminster,"1,070,000",00BK,Westminster,771.6
Grays Antique Market,"58 Davies St, London",51.5137017,-0.1486451,4.1,Westminster,501,3857.0,E09000033,Westminster,"1,070,000",00BK,Westminster,771.6
American Vintage,"Stable St, London",51.535973,-0.126182,3.4,Camden,502,3831.0,E09000007,Camden,"717,500",00AG,Camden,694.2
SOMLO - London & OMEGA Vintage,"35-36 Burlington Arcade, London",51.509631,-0.14092,4.5,Westminster,503,3857.0,E09000033,Westminster,"1,070,000",00BK,Westminster,771.6
Collectif Camden Market,"36, Camden's Stables Market, Chalk Farm Rd, London",51.54222439999999,-0.1469208,4.7,Camden,504,3831.0,E09000007,Camden,"717,500",00AG,Camden,694.2
Vintage Clothing,"53 Chalk Farm Rd, London",51.5430371,-0.1501184,0.0,Camden,505,3831.0,E09000007,Camden,"717,500",00AG,Camden,694.2
Hartex,"Unit 9, Gabriels Wharf, 56 Upper Ground, London",51.5079685,-0.1103793,4.7,Lambeth,506,3846.0,E09000022,Lambeth,"510,000",00AY,Lambeth,673.6
Vivien of Holloway,"294 Holloway Rd, London",51.55451430000001,-0.1142869,4.4,Islington,507,3843.0,E09000019,Islington,"625,000",00AU,Islington,665.6
Camden Retro Signs,"8A, The Stables Market, PADDOCK LANE, Chalk Farm Rd, London",51.5420455,-0.1469688,5.0,Camden,508,3831.0,E09000007,Camden,"717,500",00AG,Camden,694.2
ANTIQUES,London,51.5122569,-0.1546661,4.8,Westminster,509,3857.0,E09000033,Westminster,"1,070,000",00BK,Westminster,771.6
Seconda Mano - Clothing Agency,"114 Upper St, London",51.5381916,-0.1026253,4.0,Islington,510,3843.0,E09000019,Islington,"625,000",00AU,Islington,665.6
Leos boutique uk clothing popup stall,"Pierrepoint Arcade, Camden Psge, London",51.5355171,-0.1032303,5.0,Islington,511,3843.0,E09000019,Islington,"625,000",00AU,Islington,665.6
Camden Thrift Store,"51 Chalk Farm Rd, London",51.543116,-0.1494112,4.5,Camden,512,3831.0,E09000007,Camden,"717,500",00AG,Camden,694.2
The Vintage House,"42 Old Compton St, London",51.5131282,-0.1316389,4.1,Westminster,513,3857.0,E09000033,Westminster,"1,070,000",00BK,Westminster,771.6
Blue17 Vintage clothing,"162 Ground floor & basement, London",51.5512295,-0.1101328,4.7,Islington,514,3843.0,E09000019,Islington,"625,000",00AU,Islington,665.6
The Vintage Collection,"Arch 59, Camden Stables Market, London",51.5420455,-0.1469688,5.0,Camden,515,3831.0,E09000007,Camden,"717,500",00AG,Camden,694.2
Beyond Retro Coal Drops,"Unit 79-81, Coal Drops Yard, London",51.5365259,-0.1259221,4.0,Camden,516,3831.0,E09000007,Camden,"717,500",00AG,Camden,694.2
Rokit Camden,"225 Camden High St, London",51.5398923,-0.143589,4.1,Camden,517,3831.0,E09000007,Camden,"717,500",00AG,Camden,694.2
St Cyr Vintage,"56 Saddle Row Camden Market, London",51.5421391,-0.1483749,4.3,Camden,518,3831.0,E09000007,Camden,"717,500",00AG,Camden,694.2
Berty and Gerty Vintage,"53 Camden Lock Pl, London",51.5413907,-0.1465884,0.0,Camden,519,3831.0,E09000007,Camden,"717,500",00AG,Camden,694.2
What Goes Around Comes Around,"Unit 32, The Stables Market Chalk, Farm Road, London",51.5420969,-0.1466583,3.9,Camden,520,3831.0,E09000007,Camden,"717,500",00AG,Camden,694.2
Camden Threads - An online shop for the best independent brands and vintage boutiques,"44A Camden Lock Pl, London",51.5414567,-0.1463852,0.0,Camden,521,3831.0,E09000007,Camden,"717,500",00AG,Camden,694.2
Funkytownshop,"Ground Floor, 232 Camden High St, London",51.5409704,-0.1443065,3.3,Camden,522,3831.0,E09000007,Camden,"717,500",00AG,Camden,694.2
OuterLimitz Vintage,"12B, Camden Stables Market, Chalk Farm Rd, London",51.5420455,-0.1469688,0.0,Camden,523,3831.0,E09000007,Camden,"717,500",00AG,Camden,694.2
Miniola Vintage,"65 Cross St, London",51.539392,-0.101881,0.0,Islington,524,3843.0,E09000019,Islington,"625,000",00AU,Islington,665.6
Modern Age Vintage Clothing,"65 Chalk Farm Rd, London",51.5433049,-0.1503682,3.3,Camden,525,3831.0,E09000007,Camden,"717,500",00AG,Camden,694.2
Resurrection Boutique,"3, Archway Close, 3 Archway Rd, London",51.5657346,-0.134374,4.2,Islington,526,3843.0,E09000019,Islington,"625,000",00AU,Islington,665.6
A Dandy In Aspic,"Market, 748-749, North Yard Stables, Chalk Farm Rd, London",51.5425015,-0.1490213,3.4,Camden,527,3831.0,E09000007,Camden,"717,500",00AG,Camden,694.2
Svarelle,London,51.56526030000001,-0.1196879,0.0,Islington,528,3843.0,E09000019,Islington,"625,000",00AU,Islington,665.6
The Grandad Company,"47, London",51.5378699,-0.1154254,5.0,Islington,529,3843.0,E09000019,Islington,"625,000",00AU,Islington,665.6
Alpha Vintage Store,"Hornsey Rd, London",51.55952120000001,-0.1144241,0.0,Islington,530,3843.0,E09000019,Islington,"625,000",00AU,Islington,665.6
DreamingLion Vintage,"Unit D28, Horse Tunnel, The Stables Market, Chalk Farm Rd, London",51.5420455,-0.1469688,4.5,Camden,531,3831.0,E09000007,Camden,"717,500",00AG,Camden,694.2
Magpie Vintage,"3 Camden Psge, London",51.5345635,-0.1043199,4.7,Islington,532,3843.0,E09000019,Islington,"625,000",00AU,Islington,665.6
SK.Vintage,"51 Fortess Rd, London",51.5539851,-0.1406663,4.5,Camden,533,3831.0,E09000007,Camden,"717,500",00AG,Camden,694.2
Cats In Orbit,"54 Eade Rd, London",51.5740932,-0.094848,1.0,Haringey,534,3838.0,E09000014,Haringey,"487,500",00AP,Haringey,542.6
Arts And Vintage,"263 Archway Rd, London",51.5762988,-0.1442271,4.8,Haringey,535,3838.0,E09000014,Haringey,"487,500",00AP,Haringey,542.6
Dreamtime,"14 Pierrepoint Arcade, London",51.5345842,-0.1037696,1.0,Islington,536,3843.0,E09000019,Islington,"625,000",00AU,Islington,665.6
Laura von Behr Vintage,"Canonbury Yard, Building 1, 5A, 190 New N Rd, London",51.5377403,-0.0908213,5.0,Islington,537,3843.0,E09000019,Islington,"625,000",00AU,Islington,665.6
American Vintage,"Stable St, London",51.535973,-0.126182,3.4,Camden,538,3831.0,E09000007,Camden,"717,500",00AG,Camden,694.2
Collectif Camden Market,"36, Camden's Stables Market, Chalk Farm Rd, London",51.54222439999999,-0.1469208,4.7,Camden,539,3831.0,E09000007,Camden,"717,500",00AG,Camden,694.2
"Camden Passage, Islington","1 Camden Psge, London",51.5346814,-0.1039732,4.3,Islington,540,3843.0,E09000019,Islington,"625,000",00AU,Islington,665.6
Vintage Clothing,"53 Chalk Farm Rd, London",51.5430371,-0.1501184,0.0,Camden,541,3831.0,E09000007,Camden,"717,500",00AG,Camden,694.2
Vivien of Holloway,"294 Holloway Rd, London",51.55451430000001,-0.1142869,4.4,Islington,542,3843.0,E09000019,Islington,"625,000",00AU,Islington,665.6
Camden Retro Signs,"8A, The Stables Market, PADDOCK LANE, Chalk Farm Rd, London",51.5420455,-0.1469688,5.0,Camden,543,3831.0,E09000007,Camden,"717,500",00AG,Camden,694.2
Seconda Mano - Clothing Agency,"114 Upper St, London",51.5381916,-0.1026253,4.0,Islington,544,3843.0,E09000019,Islington,"625,000",00AU,Islington,665.6
rollos vintage furniture,"391 Archway Rd, London",51.5783701,-0.1490951,5.0,Haringey,545,3838.0,E09000014,Haringey,"487,500",00AP,Haringey,542.6
Vintage Concept Store,"658 Holloway Rd, London",51.56258039999999,-0.1263506,0.0,Islington,546,3843.0,E09000019,Islington,"625,000",00AU,Islington,665.6
Leos boutique uk clothing popup stall,"Pierrepoint Arcade, Camden Psge, London",51.5355171,-0.1032303,5.0,Islington,547,3843.0,E09000019,Islington,"625,000",00AU,Islington,665.6
House of Modern Vintage,"Wightman Rd, London",51.5793317,-0.1041108,4.9,Haringey,548,3838.0,E09000014,Haringey,"487,500",00AP,Haringey,542.6
Camden Thrift Store,"51 Chalk Farm Rd, London",51.543116,-0.1494112,4.5,Camden,549,3831.0,E09000007,Camden,"717,500",00AG,Camden,694.2
Gonnermann,"408-410 Archway Rd, London",51.5766188,-0.1441633,4.9,Haringey,550,3838.0,E09000014,Haringey,"487,500",00AP,Haringey,542.6
Aladdin's Vintage Furniture & Cafe,"1 Hazellville Rd, London",51.5695455,-0.1243871,4.7,Islington,551,3843.0,E09000019,Islington,"625,000",00AU,Islington,665.6
Past Caring London,"54 Essex Rd, London",51.5377097,-0.0997412,4.6,Islington,552,3843.0,E09000019,Islington,"625,000",00AU,Islington,665.6
BijouxB Vintage Jewellery - Islington,"1-6 Colinsdale Estate, Camden Walk, London",51.5354176,-0.1031492,3.0,Islington,553,3843.0,E09000019,Islington,"625,000",00AU,Islington,665.6
D & A Binder - Antique Shop Cabinets & Bespoke Shopfittings for Hire or Purchase,"101 Holloway Rd, London",51.548067,-0.1066036,4.9,Islington,554,3843.0,E09000019,Islington,"625,000",00AU,Islington,665.6
Vintage Luggage,"18 Delancey St, London",51.5368475,-0.1426188,4.2,Camden,555,3831.0,E09000007,Camden,"717,500",00AG,Camden,694.2
Little Paris Store,"39 Park Rd, London",51.580974,-0.125502,4.5,Haringey,556,3838.0,E09000014,Haringey,"487,500",00AP,Haringey,542.6
Episode,"26 Chalk Farm Rd, London",51.542509,-0.146978,0.0,Camden,557,3831.0,E09000007,Camden,"717,500",00AG,Camden,694.2
Koo Style,"Unit 14/8, Camden Stables Market, Chalk Farm Rd, London",51.54197300000001,-0.1477216,4.2,Camden,558,3831.0,E09000007,Camden,"717,500",00AG,Camden,694.2
CIRCA VINTAGE,"87a Lansdowne Way, London",51.4748348,-0.1286932,4.7,Lambeth,559,3846.0,E09000022,Lambeth,"510,000",00AY,Lambeth,673.6
TTFN Vintage,"106-108 Denmark Hill, London",51.4709291,-0.0930882,5.0,Lambeth,560,3846.0,E09000022,Lambeth,"510,000",00AY,Lambeth,673.6
Leona,"Brixton Village, Unit 5 Coldharbour Ln, London",51.4621557,-0.1114804,5.0,Lambeth,561,3846.0,E09000022,Lambeth,"510,000",00AY,Lambeth,673.6
Blue Feather,"14 Melbourne Grove, London",51.4604254,-0.0799633,4.9,Southwark,562,3852.0,E09000028,Southwark,"520,000",00BE,Southwark,631.9
Little Sister,"Market Peckham, 133a Rye Ln, London",51.46982449999999,-0.0680959,5.0,Southwark,563,3852.0,E09000028,Southwark,"520,000",00BE,Southwark,631.9
Rejuvenate - Something for everyone,"41-42 Coldharbour Ln, London",51.4625934,-0.1116695,0.0,Lambeth,564,3846.0,E09000022,Lambeth,"510,000",00AY,Lambeth,673.6
Rye Not Retro,"62 Peckham Rye, London",51.4649691,-0.0666578999999999,4.3,Southwark,565,3852.0,E09000028,Southwark,"520,000",00BE,Southwark,631.9
Bella West,"Granville Arcade, Unit 76 Coldharbour Ln, London",51.4624417,-0.1118706,3.7,Lambeth,566,3846.0,E09000022,Lambeth,"510,000",00AY,Lambeth,673.6
National Vintage League Ltd.,"Unit 2, Print Village, 58 Chadwick Rd, London",51.4683982,-0.0749778,5.0,Southwark,567,3852.0,E09000028,Southwark,"520,000",00BE,Southwark,631.9
My Vintage J Box,"58 Streatham High Rd, London",51.4367663,-0.1280156,5.0,Lambeth,568,3846.0,E09000022,Lambeth,"510,000",00AY,Lambeth,673.6
Morbleu,"135 Dulwich Rd, London",51.4526729,-0.1027664,4.4,Lambeth,569,3846.0,E09000022,Lambeth,"510,000",00AY,Lambeth,673.6
Windsor Antique Emporium,"405 Lordship Ln, London",51.448623,-0.0735941,5.0,Southwark,570,3852.0,E09000028,Southwark,"520,000",00BE,Southwark,631.9
TRAID Peckham,"14-16 Rye Ln, London",51.4726379,-0.0698983,4.2,Southwark,571,3852.0,E09000028,Southwark,"520,000",00BE,Southwark,631.9
Vintage Chairs,"25 Gubyon Ave, London",51.4554139,-0.102013,0.0,Lambeth,572,3846.0,E09000022,Lambeth,"510,000",00AY,Lambeth,673.6
Frost,"144 Bellenden Rd, London",51.4681623,-0.0726333,5.0,Southwark,573,3852.0,E09000028,Southwark,"520,000",00BE,Southwark,631.9
Traid,"2 Acre Ln, London",51.4612282,-0.1162417,4.1,Lambeth,574,3846.0,E09000022,Lambeth,"510,000",00AY,Lambeth,673.6
Loved again Ltd.,"140 Stockwell Rd, London",51.4673937,-0.1182007,5.0,Lambeth,575,3846.0,E09000022,Lambeth,"510,000",00AY,Lambeth,673.6
CIRCA VINTAGE,"87a Lansdowne Way, London",51.4748348,-0.1286932,4.7,Lambeth,576,3846.0,E09000022,Lambeth,"510,000",00AY,Lambeth,673.6
TTFN Vintage,"106-108 Denmark Hill, London",51.4709291,-0.0930882,5.0,Lambeth,577,3846.0,E09000022,Lambeth,"510,000",00AY,Lambeth,673.6
Pezze,"vinegar yard, St Thomas St, London",51.5026705,-0.0833746,5.0,Southwark,578,3852.0,E09000028,Southwark,"520,000",00BE,Southwark,631.9
Leona,"Brixton Village, Unit 5 Coldharbour Ln, London",51.4621557,-0.1114804,5.0,Lambeth,579,3846.0,E09000022,Lambeth,"510,000",00AY,Lambeth,673.6
Blue Feather,"14 Melbourne Grove, London",51.4604254,-0.0799633,4.9,Southwark,580,3852.0,E09000028,Southwark,"520,000",00BE,Southwark,631.9
Little Sister,"Market Peckham, 133a Rye Ln, London",51.46982449999999,-0.0680959,5.0,Southwark,581,3852.0,E09000028,Southwark,"520,000",00BE,Southwark,631.9
Rejuvenate - Something for everyone,"41-42 Coldharbour Ln, London",51.4625934,-0.1116695,0.0,Lambeth,582,3846.0,E09000022,Lambeth,"510,000",00AY,Lambeth,673.6
Rye Not Retro,"62 Peckham Rye, London",51.4649691,-0.0666578999999999,4.3,Southwark,583,3852.0,E09000028,Southwark,"520,000",00BE,Southwark,631.9
Bella West,"Granville Arcade, Unit 76 Coldharbour Ln, London",51.4624417,-0.1118706,3.7,Lambeth,584,3846.0,E09000022,Lambeth,"510,000",00AY,Lambeth,673.6
National Vintage League Ltd.,"Unit 2, Print Village, 58 Chadwick Rd, London",51.4683982,-0.0749778,5.0,Southwark,585,3852.0,E09000028,Southwark,"520,000",00BE,Southwark,631.9
livewithfashion,"Alpha House, 100 Borough High St, London",51.5032218,-0.0919688999999999,0.0,Southwark,586,3852.0,E09000028,Southwark,"520,000",00BE,Southwark,631.9
Academy Vintage Repro,"229 Waterloo Rd, London",51.4998143,-0.1068619,0.0,Southwark,587,3852.0,E09000028,Southwark,"520,000",00BE,Southwark,631.9
Retromania Fara London,"6 Upper Tachbrook St, London",51.4933772,-0.1399568,4.3,Westminster,588,3857.0,E09000033,Westminster,"1,070,000",00BK,Westminster,771.6
ACADEMY COSTUMES & REPRODUCTIONS,"229 Waterloo Rd, London",51.4998143,-0.1068619,5.0,Southwark,589,3852.0,E09000028,Southwark,"520,000",00BE,Southwark,631.9
Flea London Vintage & Makers Market,"Vinegar Yard, St Thomas St, London",51.50259699999999,-0.0834464999999999,4.0,Southwark,590,3852.0,E09000028,Southwark,"520,000",00BE,Southwark,631.9
All Loved Up Boutique,"All Loved Up Boutique, 91 Charlwood St, London",51.4880187,-0.1412302,5.0,Westminster,591,3857.0,E09000033,Westminster,"1,070,000",00BK,Westminster,771.6
Bermondsey Antique Market,"11 Bermondsey Sq, London",51.4972798,-0.0812958,3.9,Southwark,592,3852.0,E09000028,Southwark,"520,000",00BE,Southwark,631.9
The Rabbithole,"Vinegar Yard, 72-82 St Thomas St, London",51.5028073,-0.0838078,5.0,Southwark,593,3852.0,E09000028,Southwark,"520,000",00BE,Southwark,631.9
PICKNWEIGHT - VINTAGE KILO STORE,"14-18 Neal St, London",51.5138476,-0.1248029,3.6,Westminster,594,3857.0,E09000033,Westminster,"1,070,000",00BK,Westminster,771.6
Reign Vintage,"12 Berwick St, London",51.51340130000001,-0.1345882,4.3,Westminster,595,3857.0,E09000033,Westminster,"1,070,000",00BK,Westminster,771.6
Hunky Dory Vintage,"226 Brick Ln, London",51.52473939999999,-0.0715639,4.5,Tower Hamlets,596,3854.0,E09000030,Tower Hamlets,"475,000",00BG,Tower Hamlets,680.3
Wow Retro London Covent Garden,"179 Drury Ln, London",51.51564699999999,-0.1234713,4.3,Camden,597,3831.0,E09000007,Camden,"717,500",00AG,Camden,694.2
The Brick Lane Vintage Market,"85 Brick Ln, London",51.52079579999999,-0.0720977,4.3,Tower Hamlets,598,3854.0,E09000030,Tower Hamlets,"475,000",00BG,Tower Hamlets,680.3
Blackout II - Vintage Clothing London,"51 Endell St, London",51.5148867,-0.125315,3.9,Camden,599,3831.0,E09000007,Camden,"717,500",00AG,Camden,694.2
House of Vintage Shoreditch,"4 Cheshire St, London",51.5234455,-0.0711518999999999,3.7,Tower Hamlets,600,3854.0,E09000030,Tower Hamlets,"475,000",00BG,Tower Hamlets,680.3
Vintage Threads,"69 Neal St, London",51.51494020000001,-0.1266051,4.3,Camden,601,3831.0,E09000007,Camden,"717,500",00AG,Camden,694.2
Brick Lane Vintage,"182 Brick Ln, London",51.52353850000001,-0.0713005999999999,4.2,Tower Hamlets,602,3854.0,E09000030,Tower Hamlets,"475,000",00BG,Tower Hamlets,680.3
Pop Boutique,"30 Short's Gardens, London",51.5144586,-0.1254132,4.1,Camden,603,3831.0,E09000007,Camden,"717,500",00AG,Camden,694.2
Goldsmith Vintage,"121, 123 Charing Cross Rd, London",51.5149524,-0.1301147,4.2,Westminster,604,3857.0,E09000033,Westminster,"1,070,000",00BK,Westminster,771.6
Vintage Basement,"7 Cheshire St, London",51.5235678,-0.0709520999999999,4.4,Tower Hamlets,605,3854.0,E09000030,Tower Hamlets,"475,000",00BG,Tower Hamlets,680.3
Rokit Covent Garden,"42 Shelton St, London",51.5140748,-0.1244384,4.2,Westminster,606,3857.0,E09000033,Westminster,"1,070,000",00BK,Westminster,771.6
Magpie Vintage,"F Block, Magpie Vintage Brick Lane Vintage Market, 85 Brick Ln, London",51.520781,-0.0719501,5.0,Tower Hamlets,607,3854.0,E09000030,Tower Hamlets,"475,000",00BG,Tower Hamlets,680.3
goldsmith vintage,"57 Neal St, London",51.51476760000001,-0.1263361,3.4,Camden,608,3831.0,E09000007,Camden,"717,500",00AG,Camden,694.2
Rokit,"101 Brick Ln, London",51.5224997,-0.0716904,4.1,Tower Hamlets,609,3854.0,E09000030,Tower Hamlets,"475,000",00BG,Tower Hamlets,680.3
SO VINTAGE LONDON,"Old Spitalfields Market, 16 Horner Square, Spitalfields, London",51.5196411,-0.0756105,3.0,Tower Hamlets,610,3854.0,E09000030,Tower Hamlets,"475,000",00BG,Tower Hamlets,680.3
Levisons Vintage Clothing,"1 Cheshire St, Brick Ln, London",51.5235518,-0.0711432,4.3,Tower Hamlets,611,3854.0,E09000030,Tower Hamlets,"475,000",00BG,Tower Hamlets,680.3
Past Trash,"38 Neal St, London",51.5143694,-0.1253947,4.7,Camden,612,3831.0,E09000007,Camden,"717,500",00AG,Camden,694.2
Wings Vintage,"105A Euston St., London",51.526494,-0.1363579,4.0,Camden,613,3831.0,E09000007,Camden,"717,500",00AG,Camden,694.2
ATIKA,"55-59 Hanbury St, London",51.52037370000001,-0.0709477999999999,4.3,Tower Hamlets,614,3854.0,E09000030,Tower Hamlets,"475,000",00BG,Tower Hamlets,680.3
The yard,"115 Brick Ln, London",51.5204843,-0.0738691,0.0,Tower Hamlets,615,3854.0,E09000030,Tower Hamlets,"475,000",00BG,Tower Hamlets,680.3
SCOUT VINTAGE,"108 Commercial St, London",51.5200921,-0.0742704,4.5,Tower Hamlets,616,3854.0,E09000030,Tower Hamlets,"475,000",00BG,Tower Hamlets,680.3
Collectif,"71 Brushfield St, London",51.5192388,-0.0750617,4.4,Tower Hamlets,617,3854.0,E09000030,Tower Hamlets,"475,000",00BG,Tower Hamlets,680.3
VOUT,"95 Columbia Rd, London",51.5299168,-0.0687478,5.0,Tower Hamlets,618,3854.0,E09000030,Tower Hamlets,"475,000",00BG,Tower Hamlets,680.3
Vintage Paradise,"220 Brick Ln, London",51.5245456,-0.0715203,4.3,Tower Hamlets,619,3854.0,E09000030,Tower Hamlets,"475,000",00BG,Tower Hamlets,680.3
Vintage Planet,"Unit 5/6, Vintage Planet, Brick Lane Vintage Market B4, 91 Brick Ln, London",51.5212201,-0.0719517,4.3,Tower Hamlets,620,3854.0,E09000030,Tower Hamlets,"475,000",00BG,Tower Hamlets,680.3
Pezze,"vinegar yard, St Thomas St, London",51.5026705,-0.0833746,5.0,Southwark,621,3852.0,E09000028,Southwark,"520,000",00BE,Southwark,631.9
Dunno. Curated,"8 Berwick St, London",51.5132162,-0.134507,4.7,Westminster,622,3857.0,E09000033,Westminster,"1,070,000",00BK,Westminster,771.6
Non Stop Vintage,"117c Brick Ln, London",51.5238695,-0.0715777,2.8,Tower Hamlets,623,3854.0,E09000030,Tower Hamlets,"475,000",00BG,Tower Hamlets,680.3
Gong Nong Bing Vintage,"68 Charing Cross Rd, London",51.5124053,-0.1284323,5.0,Westminster,624,3857.0,E09000033,Westminster,"1,070,000",00BK,Westminster,771.6
COW Vintage,"13 Short's Gardens, London",51.5141663,-0.126386,3.7,Camden,625,3831.0,E09000007,Camden,"717,500",00AG,Camden,694.2
House of Vintage,"388 Old St, London",51.5270585,-0.0782834,0.0,Hackney,626,3836.0,E09000012,Hackney,"530,000",00AM,Hackney,575.1
Love Leather THE VINTAGE MARKET,"85 Brick Ln, London",51.5206389,-0.0719332,4.7,Tower Hamlets,627,3854.0,E09000030,Tower Hamlets,"475,000",00BG,Tower Hamlets,680.3
Pennies Vintage,"41A Amwell St, London",51.5292864,-0.1104796,4.7,Islington,628,3843.0,E09000019,Islington,"625,000",00AU,Islington,665.6
Thrifted.com @ Brick Lane,"Vintage Market Shoreditch, Unit 30, 85 Brick Ln, London",51.520781,-0.0719501,5.0,Tower Hamlets,629,3854.0,E09000030,Tower Hamlets,"475,000",00BG,Tower Hamlets,680.3
Vintage Clothing,"42 Shelton St, London",51.5140221,-0.1245663,5.0,Westminster,630,3857.0,E09000033,Westminster,"1,070,000",00BK,Westminster,771.6
Vintage Velvet Clothing,"85 Brick Ln, London",51.52086689999999,-0.0720324,0.0,Tower Hamlets,631,3854.0,E09000030,Tower Hamlets,"475,000",00BG,Tower Hamlets,680.3
London Vintage,"5 Cheshire St, London",51.5235908,-0.0710595,5.0,Tower Hamlets,632,3854.0,E09000030,Tower Hamlets,"475,000",00BG,Tower Hamlets,680.3
Cream Vintage London,"158 Brick Ln, London",51.52206469999999,-0.0715983999999999,5.0,Tower Hamlets,633,3854.0,E09000030,Tower Hamlets,"475,000",00BG,Tower Hamlets,680.3
Here After,"151 Brick Ln, London",51.5242606,-0.071672,3.6,Tower Hamlets,634,3854.0,E09000030,Tower Hamlets,"475,000",00BG,Tower Hamlets,680.3
Sunday market stock vintage,"106 Sclater St, London",51.5236031,-0.0734318,0.0,Tower Hamlets,635,3854.0,E09000030,Tower Hamlets,"475,000",00BG,Tower Hamlets,680.3
Pink Ink,"Vintage market, 85 Brick Ln, London",51.520781,-0.0719501,0.0,Tower Hamlets,636,3854.0,E09000030,Tower Hamlets,"475,000",00BG,Tower Hamlets,680.3
Hartex,"Unit 9, Gabriels Wharf, 56 Upper Ground, London",51.5079685,-0.1103793,4.7,Lambeth,637,3846.0,E09000022,Lambeth,"510,000",00AY,Lambeth,673.6
Good,"33 Neal St, London",51.5142216,-0.1256036,5.0,Camden,638,3831.0,E09000007,Camden,"717,500",00AG,Camden,694.2
